[
  {
    "2016": "",
    "2017": "",
    "2018": "",
    "2019": 15.64025,
    "Goal": 12,
    "Target": 12.3,
    "Indicator": "12.3.1",
    "SeriesCode": "AG_FOOD_WST_PC",
    "SeriesDescription": "Food waste per capita (KG)",
    "GeoAreaCode": 4,
    "GeoAreaName": "Afghanistan",
    "Food Waste Sector": "RTL",
    "Units": "KG",
    "FoodTotal": 125.01836,
    "lat": 33.93911,
    "long": 67.709953
  },
  {
    "2016": "",
    "2017": "",
    "2018": "",
    "2019": 15.64016,
    "Goal": 12,
    "Target": 12.3,
    "Indicator": "12.3.1",
    "SeriesCode": "AG_FOOD_WST_PC",
    "SeriesDescription": "Food waste per capita (KG)",
    "GeoAreaCode": 8,
    "GeoAreaName": "Albania",
    "Food Waste Sector": "RTL",
    "Units": "KG",
    "FoodTotal": 126.07151,
    "lat": 41.153332,
    "long": 20.168331
  },
  {
    "2016": "",
    "2017": "",
    "2018": "",
    "2019": 15.64025,
    "Goal": 12,
    "Target": 12.3,
    "Indicator": "12.3.1",
    "SeriesCode": "AG_FOOD_WST_PC",
    "SeriesDescription": "Food waste per capita (KG)",
    "GeoAreaCode": 12,
    "GeoAreaName": "Algeria",
    "Food Waste Sector": "RTL",
    "Units": "KG",
    "FoodTotal": 134.30463,
    "lat": 28.033886,
    "long": 1.659626
  },
  {
    "2016": "",
    "2017": "",
    "2018": "",
    "2019": 15.63684,
    "Goal": 12,
    "Target": 12.3,
    "Indicator": "12.3.1",
    "SeriesCode": "AG_FOOD_WST_PC",
    "SeriesDescription": "Food waste per capita (KG)",
    "GeoAreaCode": 16,
    "GeoAreaName": "American Samoa",
    "Food Waste Sector": "RTL",
    "Units": "KG",
    "FoodTotal": 118.97561,
    "lat": -14.270972,
    "long": -170.132217
  },
  {
    "2016": "",
    "2017": "",
    "2018": "",
    "2019": 12.80367,
    "Goal": 12,
    "Target": 12.3,
    "Indicator": "12.3.1",
    "SeriesCode": "AG_FOOD_WST_PC",
    "SeriesDescription": "Food waste per capita (KG)",
    "GeoAreaCode": 20,
    "GeoAreaName": "Andorra",
    "Food Waste Sector": "RTL",
    "Units": "KG",
    "FoodTotal": 122.58097,
    "lat": 42.546245,
    "long": 1.601554
  },
  {
    "2016": 24.88389,
    "2017": 19.83844,
    "2018": 18.79901,
    "2019": 16.89819,
    "Goal": 12,
    "Target": 12.4,
    "Indicator": "12.4.2",
    "SeriesCode": "EN_HAZ_PCAP",
    "SeriesDescription": "Hazardous waste generated, per capita (Kg)",
    "GeoAreaCode": 20,
    "GeoAreaName": "Andorra",
    "Food Waste Sector": "N/A",
    "Units": "KG",
    "FoodTotal": "",
    "lat": 42.546245,
    "long": 1.601554
  },
  {
    "2016": "",
    "2017": "",
    "2018": "",
    "2019": 15.64023,
    "Goal": 12,
    "Target": 12.3,
    "Indicator": "12.3.1",
    "SeriesCode": "AG_FOOD_WST_PC",
    "SeriesDescription": "Food waste per capita (KG)",
    "GeoAreaCode": 24,
    "GeoAreaName": "Angola",
    "Food Waste Sector": "RTL",
    "Units": "KG",
    "FoodTotal": 142.87961,
    "lat": -11.202692,
    "long": 17.873887
  },
  {
    "2016": "",
    "2017": "",
    "2018": "",
    "2019": 12.80933,
    "Goal": 12,
    "Target": 12.3,
    "Indicator": "12.3.1",
    "SeriesCode": "AG_FOOD_WST_PC",
    "SeriesDescription": "Food waste per capita (KG)",
    "GeoAreaCode": 28,
    "GeoAreaName": "Antigua and Barbuda",
    "Food Waste Sector": "RTL",
    "Units": "KG",
    "FoodTotal": 112.28515,
    "lat": 17.060816,
    "long": -61.796428
  },
  {
    "2016": "",
    "2017": "",
    "2018": "",
    "2019": 15.6402,
    "Goal": 12,
    "Target": 12.3,
    "Indicator": "12.3.1",
    "SeriesCode": "AG_FOOD_WST_PC",
    "SeriesDescription": "Food waste per capita (KG)",
    "GeoAreaCode": 31,
    "GeoAreaName": "Azerbaijan",
    "Food Waste Sector": "RTL",
    "Units": "KG",
    "FoodTotal": 136.33146,
    "lat": 40.143105,
    "long": 47.576927
  },
  {
    "2016": 64.97528,
    "2017": 27.01488,
    "2018": 34.04581,
    "2019": 31.59055,
    "Goal": 12,
    "Target": 12.4,
    "Indicator": "12.4.2",
    "SeriesCode": "EN_HAZ_PCAP",
    "SeriesDescription": "Hazardous waste generated, per capita (Kg)",
    "GeoAreaCode": 31,
    "GeoAreaName": "Azerbaijan",
    "Food Waste Sector": "N/A",
    "Units": "KG",
    "FoodTotal": "",
    "lat": 40.143105,
    "long": 47.576927
  },
  {
    "2016": "",
    "2017": "",
    "2018": "",
    "2019": 15.64024,
    "Goal": 12,
    "Target": 12.3,
    "Indicator": "12.3.1",
    "SeriesCode": "AG_FOOD_WST_PC",
    "SeriesDescription": "Food waste per capita (KG)",
    "GeoAreaCode": 32,
    "GeoAreaName": "Argentina",
    "Food Waste Sector": "RTL",
    "Units": "KG",
    "FoodTotal": 115.72053,
    "lat": -38.416097,
    "long": -63.616672
  },
  {
    "2016": 16.82933,
    "2017": 22.83043,
    "2018": 17.57628,
    "2019": 17.22542,
    "Goal": 12,
    "Target": 12.4,
    "Indicator": "12.4.2",
    "SeriesCode": "EN_HAZ_PCAP",
    "SeriesDescription": "Hazardous waste generated, per capita (Kg)",
    "GeoAreaCode": 32,
    "GeoAreaName": "Argentina",
    "Food Waste Sector": "N/A",
    "Units": "KG",
    "FoodTotal": "",
    "lat": -38.416097,
    "long": -63.616672
  },
  {
    "2016": "",
    "2017": "",
    "2018": "",
    "2019": 9.45307,
    "Goal": 12,
    "Target": 12.3,
    "Indicator": "12.3.1",
    "SeriesCode": "AG_FOOD_WST_PC",
    "SeriesDescription": "Food waste per capita (KG)",
    "GeoAreaCode": 36,
    "GeoAreaName": "Australia",
    "Food Waste Sector": "RTL",
    "Units": "KG",
    "FoodTotal": 132.82827,
    "lat": -25.274398,
    "long": 133.775136
  },
  {
    "2016": "",
    "2017": "",
    "2018": "",
    "2019": 8.63071,
    "Goal": 12,
    "Target": 12.3,
    "Indicator": "12.3.1",
    "SeriesCode": "AG_FOOD_WST_PC",
    "SeriesDescription": "Food waste per capita (KG)",
    "GeoAreaCode": 40,
    "GeoAreaName": "Austria",
    "Food Waste Sector": "RTL",
    "Units": "KG",
    "FoodTotal": 76.01568,
    "lat": 47.516231,
    "long": 14.550072
  },
  {
    "2016": "",
    "2017": "",
    "2018": "",
    "2019": 12.81177,
    "Goal": 12,
    "Target": 12.3,
    "Indicator": "12.3.1",
    "SeriesCode": "AG_FOOD_WST_PC",
    "SeriesDescription": "Food waste per capita (KG)",
    "GeoAreaCode": 44,
    "GeoAreaName": "Bahamas",
    "Food Waste Sector": "RTL",
    "Units": "KG",
    "FoodTotal": 112.30654,
    "lat": 25.03428,
    "long": -77.39628
  },
  {
    "2016": "",
    "2017": "",
    "2018": "",
    "2019": 12.81159,
    "Goal": 12,
    "Target": 12.3,
    "Indicator": "12.3.1",
    "SeriesCode": "AG_FOOD_WST_PC",
    "SeriesDescription": "Food waste per capita (KG)",
    "GeoAreaCode": 48,
    "GeoAreaName": "Bahrain",
    "Food Waste Sector": "RTL",
    "Units": "KG",
    "FoodTotal": 170.09462,
    "lat": 25.930414,
    "long": 50.637772
  },
  {
    "2016": 50.80738,
    "2017": 48.04428,
    "2018": 51.70781,
    "2019": 56.35094,
    "Goal": 12,
    "Target": 12.4,
    "Indicator": "12.4.2",
    "SeriesCode": "EN_HAZ_PCAP",
    "SeriesDescription": "Hazardous waste generated, per capita (Kg)",
    "GeoAreaCode": 48,
    "GeoAreaName": "Bahrain",
    "Food Waste Sector": "N/A",
    "Units": "KG",
    "FoodTotal": "",
    "lat": 25.930414,
    "long": 50.637772
  },
  {
    "2016": "",
    "2017": "",
    "2018": "",
    "2019": 15.64023,
    "Goal": 12,
    "Target": 12.3,
    "Indicator": "12.3.1",
    "SeriesCode": "AG_FOOD_WST_PC",
    "SeriesDescription": "Food waste per capita (KG)",
    "GeoAreaCode": 50,
    "GeoAreaName": "Bangladesh",
    "Food Waste Sector": "RTL",
    "Units": "KG",
    "FoodTotal": 84.10347,
    "lat": 23.684994,
    "long": 90.356331
  },
  {
    "2016": "",
    "2017": "",
    "2018": "",
    "2019": 15.64008,
    "Goal": 12,
    "Target": 12.3,
    "Indicator": "12.3.1",
    "SeriesCode": "AG_FOOD_WST_PC",
    "SeriesDescription": "Food waste per capita (KG)",
    "GeoAreaCode": 51,
    "GeoAreaName": "Armenia",
    "Food Waste Sector": "RTL",
    "Units": "KG",
    "FoodTotal": 136.33042,
    "lat": 40.069099,
    "long": 45.038189
  },
  {
    "2016": 209.61846,
    "2017": 182.63233,
    "2018": 173.07023,
    "2019": 192.89705,
    "Goal": 12,
    "Target": 12.4,
    "Indicator": "12.4.2",
    "SeriesCode": "EN_HAZ_PCAP",
    "SeriesDescription": "Hazardous waste generated, per capita (Kg)",
    "GeoAreaCode": 51,
    "GeoAreaName": "Armenia",
    "Food Waste Sector": "N/A",
    "Units": "KG",
    "FoodTotal": "",
    "lat": 40.069099,
    "long": 45.038189
  },
  {
    "2016": "",
    "2017": "",
    "2018": "",
    "2019": 12.81037,
    "Goal": 12,
    "Target": 12.3,
    "Indicator": "12.3.1",
    "SeriesCode": "AG_FOOD_WST_PC",
    "SeriesDescription": "Food waste per capita (KG)",
    "GeoAreaCode": 52,
    "GeoAreaName": "Barbados",
    "Food Waste Sector": "RTL",
    "Units": "KG",
    "FoodTotal": 112.29428,
    "lat": 13.193887,
    "long": -59.543198
  },
  {
    "2016": "",
    "2017": "",
    "2018": "",
    "2019": 9.71462,
    "Goal": 12,
    "Target": 12.3,
    "Indicator": "12.3.1",
    "SeriesCode": "AG_FOOD_WST_PC",
    "SeriesDescription": "Food waste per capita (KG)",
    "GeoAreaCode": 56,
    "GeoAreaName": "Belgium",
    "Food Waste Sector": "RTL",
    "Units": "KG",
    "FoodTotal": 79.33804,
    "lat": 50.503887,
    "long": 4.469936
  },
  {
    "2016": "",
    "2017": "",
    "2018": "",
    "2019": 12.80967,
    "Goal": 12,
    "Target": 12.3,
    "Indicator": "12.3.1",
    "SeriesCode": "AG_FOOD_WST_PC",
    "SeriesDescription": "Food waste per capita (KG)",
    "GeoAreaCode": 60,
    "GeoAreaName": "Bermuda",
    "Food Waste Sector": "RTL",
    "Units": "KG",
    "FoodTotal": 112.05627,
    "lat": 32.321384,
    "long": -64.75737
  },
  {
    "2016": 9.4697,
    "2017": 8.32805,
    "2018": 23.89943,
    "2019": 28.79631,
    "Goal": 12,
    "Target": 12.4,
    "Indicator": "12.4.2",
    "SeriesCode": "EN_HAZ_PCAP",
    "SeriesDescription": "Hazardous waste generated, per capita (Kg)",
    "GeoAreaCode": 60,
    "GeoAreaName": "Bermuda",
    "Food Waste Sector": "N/A",
    "Units": "KG",
    "FoodTotal": "",
    "lat": 32.321384,
    "long": -64.75737
  },
  {
    "2016": "",
    "2017": "",
    "2018": "",
    "2019": 15.64035,
    "Goal": 12,
    "Target": 12.3,
    "Indicator": "12.3.1",
    "SeriesCode": "AG_FOOD_WST_PC",
    "SeriesDescription": "Food waste per capita (KG)",
    "GeoAreaCode": 64,
    "GeoAreaName": "Bhutan",
    "Food Waste Sector": "RTL",
    "Units": "KG",
    "FoodTotal": 121.91613,
    "lat": 27.514162,
    "long": 90.433601
  },
  {
    "2016": "",
    "2017": "",
    "2018": "",
    "2019": 1.34977,
    "Goal": 12,
    "Target": 12.4,
    "Indicator": "12.4.2",
    "SeriesCode": "EN_EWT_GENPCAP",
    "SeriesDescription": "Electronic waste generated, per capita (Kg)",
    "GeoAreaCode": 64,
    "GeoAreaName": "Bhutan",
    "Food Waste Sector": "N/A",
    "Units": "KG",
    "FoodTotal": "",
    "lat": 27.514162,
    "long": 90.433601
  },
  {
    "2016": "",
    "2017": 0.57406,
    "2018": "",
    "2019": 0.46997,
    "Goal": 12,
    "Target": 12.4,
    "Indicator": "12.4.2",
    "SeriesCode": "EN_HAZ_PCAP",
    "SeriesDescription": "Hazardous waste generated, per capita (Kg)",
    "GeoAreaCode": 64,
    "GeoAreaName": "Bhutan",
    "Food Waste Sector": "N/A",
    "Units": "KG",
    "FoodTotal": "",
    "lat": 27.514162,
    "long": 90.433601
  },
  {
    "2016": "",
    "2017": "",
    "2018": "",
    "2019": 15.64024,
    "Goal": 12,
    "Target": 12.3,
    "Indicator": "12.3.1",
    "SeriesCode": "AG_FOOD_WST_PC",
    "SeriesDescription": "Food waste per capita (KG)",
    "GeoAreaCode": 70,
    "GeoAreaName": "Bosnia and Herzegovina",
    "Food Waste Sector": "RTL",
    "Units": "KG",
    "FoodTotal": 126.07215,
    "lat": 43.915886,
    "long": 17.679076
  },
  {
    "2016": "",
    "2017": "",
    "2018": "",
    "2019": 15.64021,
    "Goal": 12,
    "Target": 12.3,
    "Indicator": "12.3.1",
    "SeriesCode": "AG_FOOD_WST_PC",
    "SeriesDescription": "Food waste per capita (KG)",
    "GeoAreaCode": 72,
    "GeoAreaName": "Botswana",
    "Food Waste Sector": "RTL",
    "Units": "KG",
    "FoodTotal": 135.2279,
    "lat": -22.328474,
    "long": 24.684866
  },
  {
    "2016": "",
    "2017": "",
    "2018": "",
    "2019": 15.64023,
    "Goal": 12,
    "Target": 12.3,
    "Indicator": "12.3.1",
    "SeriesCode": "AG_FOOD_WST_PC",
    "SeriesDescription": "Food waste per capita (KG)",
    "GeoAreaCode": 76,
    "GeoAreaName": "Brazil",
    "Food Waste Sector": "RTL",
    "Units": "KG",
    "FoodTotal": 102.88715,
    "lat": -14.235004,
    "long": -51.92528
  },
  {
    "2016": "",
    "2017": "",
    "2018": "",
    "2019": 15.64219,
    "Goal": 12,
    "Target": 12.3,
    "Indicator": "12.3.1",
    "SeriesCode": "AG_FOOD_WST_PC",
    "SeriesDescription": "Food waste per capita (KG)",
    "GeoAreaCode": 84,
    "GeoAreaName": "Belize",
    "Food Waste Sector": "RTL",
    "Units": "KG",
    "FoodTotal": 95.97424,
    "lat": 17.189877,
    "long": -88.49765
  },
  {
    "2016": "",
    "2017": "",
    "2018": "",
    "2019": 15.63974,
    "Goal": 12,
    "Target": 12.3,
    "Indicator": "12.3.1",
    "SeriesCode": "AG_FOOD_WST_PC",
    "SeriesDescription": "Food waste per capita (KG)",
    "GeoAreaCode": 90,
    "GeoAreaName": "Solomon Islands",
    "Food Waste Sector": "RTL",
    "Units": "KG",
    "FoodTotal": 134.30028,
    "lat": -9.64571,
    "long": 160.156194
  },
  {
    "2016": "",
    "2017": "",
    "2018": "",
    "2019": 12.79723,
    "Goal": 12,
    "Target": 12.3,
    "Indicator": "12.3.1",
    "SeriesCode": "AG_FOOD_WST_PC",
    "SeriesDescription": "Food waste per capita (KG)",
    "GeoAreaCode": 92,
    "GeoAreaName": "British Virgin Islands",
    "Food Waste Sector": "RTL",
    "Units": "KG",
    "FoodTotal": 112.1791,
    "lat": 18.420695,
    "long": -64.639968
  },
  {
    "2016": "",
    "2017": "",
    "2018": "",
    "2019": 12.81143,
    "Goal": 12,
    "Target": 12.3,
    "Indicator": "12.3.1",
    "SeriesCode": "AG_FOOD_WST_PC",
    "SeriesDescription": "Food waste per capita (KG)",
    "GeoAreaCode": 96,
    "GeoAreaName": "Brunei",
    "Food Waste Sector": "RTL",
    "Units": "KG",
    "FoodTotal": 118.55702,
    "lat": 4.535277,
    "long": 114.727669
  },
  {
    "2016": "",
    "2017": "",
    "2018": "",
    "2019": 15.64019,
    "Goal": 12,
    "Target": 12.3,
    "Indicator": "12.3.1",
    "SeriesCode": "AG_FOOD_WST_PC",
    "SeriesDescription": "Food waste per capita (KG)",
    "GeoAreaCode": 100,
    "GeoAreaName": "Bulgaria",
    "Food Waste Sector": "RTL",
    "Units": "KG",
    "FoodTotal": 111.6681,
    "lat": 42.733883,
    "long": 25.48583
  },
  {
    "2016": "",
    "2017": "",
    "2018": "",
    "2019": 15.64022,
    "Goal": 12,
    "Target": 12.3,
    "Indicator": "12.3.1",
    "SeriesCode": "AG_FOOD_WST_PC",
    "SeriesDescription": "Food waste per capita (KG)",
    "GeoAreaCode": 104,
    "GeoAreaName": "Myanmar [Burma]",
    "Food Waste Sector": "RTL",
    "Units": "KG",
    "FoodTotal": 129.62537,
    "lat": 21.913965,
    "long": 95.956223
  },
  {
    "2016": "",
    "2017": "",
    "2018": "",
    "2019": 15.64026,
    "Goal": 12,
    "Target": 12.3,
    "Indicator": "12.3.1",
    "SeriesCode": "AG_FOOD_WST_PC",
    "SeriesDescription": "Food waste per capita (KG)",
    "GeoAreaCode": 108,
    "GeoAreaName": "Burundi",
    "Food Waste Sector": "RTL",
    "Units": "KG",
    "FoodTotal": 145.98293,
    "lat": -3.373056,
    "long": 29.918886
  },
  {
    "2016": "",
    "2017": "",
    "2018": "",
    "2019": 15.64021,
    "Goal": 12,
    "Target": 12.3,
    "Indicator": "12.3.1",
    "SeriesCode": "AG_FOOD_WST_PC",
    "SeriesDescription": "Food waste per capita (KG)",
    "GeoAreaCode": 112,
    "GeoAreaName": "Belarus",
    "Food Waste Sector": "RTL",
    "Units": "KG",
    "FoodTotal": 111.66826,
    "lat": 53.709807,
    "long": 27.953389
  },
  {
    "2016": 172.20753,
    "2017": 176.50888,
    "2018": 232.68069,
    "2019": 218.4988,
    "Goal": 12,
    "Target": 12.4,
    "Indicator": "12.4.2",
    "SeriesCode": "EN_HAZ_PCAP",
    "SeriesDescription": "Hazardous waste generated, per capita (Kg)",
    "GeoAreaCode": 112,
    "GeoAreaName": "Belarus",
    "Food Waste Sector": "N/A",
    "Units": "KG",
    "FoodTotal": "",
    "lat": 53.709807,
    "long": 27.953389
  },
  {
    "2016": "",
    "2017": "",
    "2018": "",
    "2019": 15.64019,
    "Goal": 12,
    "Target": 12.3,
    "Indicator": "12.3.1",
    "SeriesCode": "AG_FOOD_WST_PC",
    "SeriesDescription": "Food waste per capita (KG)",
    "GeoAreaCode": 116,
    "GeoAreaName": "Cambodia",
    "Food Waste Sector": "RTL",
    "Units": "KG",
    "FoodTotal": 129.6251,
    "lat": 12.565679,
    "long": 104.990963
  },
  {
    "2016": "",
    "2017": "",
    "2018": "",
    "2019": 15.64024,
    "Goal": 12,
    "Target": 12.3,
    "Indicator": "12.3.1",
    "SeriesCode": "AG_FOOD_WST_PC",
    "SeriesDescription": "Food waste per capita (KG)",
    "GeoAreaCode": 120,
    "GeoAreaName": "Cameroon",
    "Food Waste Sector": "RTL",
    "Units": "KG",
    "FoodTotal": 142.87968,
    "lat": 7.369722,
    "long": 12.354722
  },
  {
    "2016": "",
    "2017": "",
    "2018": "",
    "2019": 12.8113,
    "Goal": 12,
    "Target": 12.3,
    "Indicator": "12.3.1",
    "SeriesCode": "AG_FOOD_WST_PC",
    "SeriesDescription": "Food waste per capita (KG)",
    "GeoAreaCode": 124,
    "GeoAreaName": "Canada",
    "Food Waste Sector": "RTL",
    "Units": "KG",
    "FoodTotal": 116.92323,
    "lat": 56.130366,
    "long": -106.346771
  },
  {
    "2016": "",
    "2017": "",
    "2018": "",
    "2019": 15.6392,
    "Goal": 12,
    "Target": 12.3,
    "Indicator": "12.3.1",
    "SeriesCode": "AG_FOOD_WST_PC",
    "SeriesDescription": "Food waste per capita (KG)",
    "GeoAreaCode": 132,
    "GeoAreaName": "Cape Verde",
    "Food Waste Sector": "RTL",
    "Units": "KG",
    "FoodTotal": 142.87024,
    "lat": 16.002082,
    "long": -24.013197
  },
  {
    "2016": "",
    "2017": "",
    "2018": "",
    "2019": 12.80184,
    "Goal": 12,
    "Target": 12.3,
    "Indicator": "12.3.1",
    "SeriesCode": "AG_FOOD_WST_PC",
    "SeriesDescription": "Food waste per capita (KG)",
    "GeoAreaCode": 136,
    "GeoAreaName": "Cayman Islands",
    "Food Waste Sector": "RTL",
    "Units": "KG",
    "FoodTotal": 112.2195,
    "lat": 19.513469,
    "long": -80.566956
  },
  {
    "2016": "",
    "2017": "",
    "2018": "",
    "2019": 15.6403,
    "Goal": 12,
    "Target": 12.3,
    "Indicator": "12.3.1",
    "SeriesCode": "AG_FOOD_WST_PC",
    "SeriesDescription": "Food waste per capita (KG)",
    "GeoAreaCode": 140,
    "GeoAreaName": "Central African Republic",
    "Food Waste Sector": "RTL",
    "Units": "KG",
    "FoodTotal": 145.98329,
    "lat": 6.611111,
    "long": 20.939444
  },
  {
    "2016": "",
    "2017": "",
    "2018": "",
    "2019": 15.6402,
    "Goal": 12,
    "Target": 12.3,
    "Indicator": "12.3.1",
    "SeriesCode": "AG_FOOD_WST_PC",
    "SeriesDescription": "Food waste per capita (KG)",
    "GeoAreaCode": 144,
    "GeoAreaName": "Sri Lanka",
    "Food Waste Sector": "RTL",
    "Units": "KG",
    "FoodTotal": 119.15382,
    "lat": 7.873054,
    "long": 80.771797
  },
  {
    "2016": "",
    "2017": "",
    "2018": "",
    "2019": 15.64025,
    "Goal": 12,
    "Target": 12.3,
    "Indicator": "12.3.1",
    "SeriesCode": "AG_FOOD_WST_PC",
    "SeriesDescription": "Food waste per capita (KG)",
    "GeoAreaCode": 148,
    "GeoAreaName": "Chad",
    "Food Waste Sector": "RTL",
    "Units": "KG",
    "FoodTotal": 145.98281,
    "lat": 15.454166,
    "long": 18.732207
  },
  {
    "2016": "",
    "2017": "",
    "2018": "",
    "2019": 12.81129,
    "Goal": 12,
    "Target": 12.3,
    "Indicator": "12.3.1",
    "SeriesCode": "AG_FOOD_WST_PC",
    "SeriesDescription": "Food waste per capita (KG)",
    "GeoAreaCode": 152,
    "GeoAreaName": "Chile",
    "Food Waste Sector": "RTL",
    "Units": "KG",
    "FoodTotal": 112.30229,
    "lat": -35.675147,
    "long": -71.542969
  },
  {
    "2016": "",
    "2017": "",
    "2018": "",
    "2019": 15.64023,
    "Goal": 12,
    "Target": 12.3,
    "Indicator": "12.3.1",
    "SeriesCode": "AG_FOOD_WST_PC",
    "SeriesDescription": "Food waste per capita (KG)",
    "GeoAreaCode": 156,
    "GeoAreaName": "China",
    "Food Waste Sector": "RTL",
    "Units": "KG",
    "FoodTotal": 125.15741,
    "lat": 35.86166,
    "long": 104.195397
  },
  {
    "2016": 36.91172,
    "2017": 46.31379,
    "2018": 52.32362,
    "2019": 56.67487,
    "Goal": 12,
    "Target": 12.4,
    "Indicator": "12.4.2",
    "SeriesCode": "EN_HAZ_PCAP",
    "SeriesDescription": "Hazardous waste generated, per capita (Kg)",
    "GeoAreaCode": 156,
    "GeoAreaName": "China",
    "Food Waste Sector": "N/A",
    "Units": "KG",
    "FoodTotal": "",
    "lat": 35.86166,
    "long": 104.195397
  },
  {
    "2016": "",
    "2017": "",
    "2018": "",
    "2019": 15.64022,
    "Goal": 12,
    "Target": 12.3,
    "Indicator": "12.3.1",
    "SeriesCode": "AG_FOOD_WST_PC",
    "SeriesDescription": "Food waste per capita (KG)",
    "GeoAreaCode": 170,
    "GeoAreaName": "Colombia",
    "Food Waste Sector": "RTL",
    "Units": "KG",
    "FoodTotal": 113.7201,
    "lat": 4.570868,
    "long": -74.297333
  },
  {
    "2016": "",
    "2017": "",
    "2018": "",
    "2019": 15.64039,
    "Goal": 12,
    "Target": 12.3,
    "Indicator": "12.3.1",
    "SeriesCode": "AG_FOOD_WST_PC",
    "SeriesDescription": "Food waste per capita (KG)",
    "GeoAreaCode": 174,
    "GeoAreaName": "Comoros",
    "Food Waste Sector": "RTL",
    "Units": "KG",
    "FoodTotal": 142.88111,
    "lat": -11.875001,
    "long": 43.872219
  },
  {
    "2016": "",
    "2017": "",
    "2018": "",
    "2019": 15.64023,
    "Goal": 12,
    "Target": 12.3,
    "Indicator": "12.3.1",
    "SeriesCode": "AG_FOOD_WST_PC",
    "SeriesDescription": "Food waste per capita (KG)",
    "GeoAreaCode": 180,
    "GeoAreaName": "Congo [DRC]",
    "Food Waste Sector": "RTL",
    "Units": "KG",
    "FoodTotal": 145.98268,
    "lat": -4.038333,
    "long": 21.758664
  },
  {
    "2016": "",
    "2017": "",
    "2018": "",
    "2019": 15.64035,
    "Goal": 12,
    "Target": 12.3,
    "Indicator": "12.3.1",
    "SeriesCode": "AG_FOOD_WST_PC",
    "SeriesDescription": "Food waste per capita (KG)",
    "GeoAreaCode": 188,
    "GeoAreaName": "Costa Rica",
    "Food Waste Sector": "RTL",
    "Units": "KG",
    "FoodTotal": 115.72136,
    "lat": 9.748917,
    "long": -83.753428
  },
  {
    "2016": "",
    "2017": "",
    "2018": "",
    "2019": 12.81131,
    "Goal": 12,
    "Target": 12.3,
    "Indicator": "12.3.1",
    "SeriesCode": "AG_FOOD_WST_PC",
    "SeriesDescription": "Food waste per capita (KG)",
    "GeoAreaCode": 191,
    "GeoAreaName": "Croatia",
    "Food Waste Sector": "RTL",
    "Units": "KG",
    "FoodTotal": 122.65413,
    "lat": 45.1,
    "long": 15.2
  },
  {
    "2016": "",
    "2017": "",
    "2018": "",
    "2019": 15.64025,
    "Goal": 12,
    "Target": 12.3,
    "Indicator": "12.3.1",
    "SeriesCode": "AG_FOOD_WST_PC",
    "SeriesDescription": "Food waste per capita (KG)",
    "GeoAreaCode": 192,
    "GeoAreaName": "Cuba",
    "Food Waste Sector": "RTL",
    "Units": "KG",
    "FoodTotal": 115.72062,
    "lat": 21.521757,
    "long": -77.781167
  },
  {
    "2016": 20.37007,
    "2017": 20.73311,
    "2018": 34.0097,
    "2019": 23.10278,
    "Goal": 12,
    "Target": 12.4,
    "Indicator": "12.4.2",
    "SeriesCode": "EN_HAZ_PCAP",
    "SeriesDescription": "Hazardous waste generated, per capita (Kg)",
    "GeoAreaCode": 192,
    "GeoAreaName": "Cuba",
    "Food Waste Sector": "N/A",
    "Units": "KG",
    "FoodTotal": "",
    "lat": 21.521757,
    "long": -77.781167
  },
  {
    "2016": "",
    "2017": "",
    "2018": "",
    "2019": 12.81159,
    "Goal": 12,
    "Target": 12.3,
    "Indicator": "12.3.1",
    "SeriesCode": "AG_FOOD_WST_PC",
    "SeriesDescription": "Food waste per capita (KG)",
    "GeoAreaCode": 196,
    "GeoAreaName": "Cyprus",
    "Food Waste Sector": "RTL",
    "Units": "KG",
    "FoodTotal": 132.91663,
    "lat": 35.126413,
    "long": 33.429859
  },
  {
    "2016": "",
    "2017": "",
    "2018": "",
    "2019": 12.81129,
    "Goal": 12,
    "Target": 12.3,
    "Indicator": "12.3.1",
    "SeriesCode": "AG_FOOD_WST_PC",
    "SeriesDescription": "Food waste per capita (KG)",
    "GeoAreaCode": 203,
    "GeoAreaName": "Czech Republic",
    "Food Waste Sector": "RTL",
    "Units": "KG",
    "FoodTotal": 108.25027,
    "lat": 49.817492,
    "long": 15.472962
  },
  {
    "2016": "",
    "2017": "",
    "2018": "",
    "2019": 15.64029,
    "Goal": 12,
    "Target": 12.3,
    "Indicator": "12.3.1",
    "SeriesCode": "AG_FOOD_WST_PC",
    "SeriesDescription": "Food waste per capita (KG)",
    "GeoAreaCode": 204,
    "GeoAreaName": "Benin",
    "Food Waste Sector": "RTL",
    "Units": "KG",
    "FoodTotal": 142.88019,
    "lat": 9.30769,
    "long": 2.315834
  },
  {
    "2016": "",
    "2017": "",
    "2018": "",
    "2019": 29.80012,
    "Goal": 12,
    "Target": 12.3,
    "Indicator": "12.3.1",
    "SeriesCode": "AG_FOOD_WST_PC",
    "SeriesDescription": "Food waste per capita (KG)",
    "GeoAreaCode": 208,
    "GeoAreaName": "Denmark",
    "Food Waste Sector": "RTL",
    "Units": "KG",
    "FoodTotal": 131.77444,
    "lat": 56.26392,
    "long": 9.501785
  },
  {
    "2016": "",
    "2017": "",
    "2018": "",
    "2019": 15.63849,
    "Goal": 12,
    "Target": 12.3,
    "Indicator": "12.3.1",
    "SeriesCode": "AG_FOOD_WST_PC",
    "SeriesDescription": "Food waste per capita (KG)",
    "GeoAreaCode": 212,
    "GeoAreaName": "Dominica",
    "Food Waste Sector": "RTL",
    "Units": "KG",
    "FoodTotal": 115.70757,
    "lat": 15.414999,
    "long": -61.370976
  },
  {
    "2016": "",
    "2017": "",
    "2018": "",
    "2019": 15.64029,
    "Goal": 12,
    "Target": 12.3,
    "Indicator": "12.3.1",
    "SeriesCode": "AG_FOOD_WST_PC",
    "SeriesDescription": "Food waste per capita (KG)",
    "GeoAreaCode": 214,
    "GeoAreaName": "Dominican Republic",
    "Food Waste Sector": "RTL",
    "Units": "KG",
    "FoodTotal": 115.72093,
    "lat": 18.735693,
    "long": -70.162651
  },
  {
    "2016": "",
    "2017": "",
    "2018": "",
    "2019": 15.64027,
    "Goal": 12,
    "Target": 12.3,
    "Indicator": "12.3.1",
    "SeriesCode": "AG_FOOD_WST_PC",
    "SeriesDescription": "Food waste per capita (KG)",
    "GeoAreaCode": 218,
    "GeoAreaName": "Ecuador",
    "Food Waste Sector": "RTL",
    "Units": "KG",
    "FoodTotal": 115.72075,
    "lat": -1.831239,
    "long": -78.183406
  },
  {
    "2016": "",
    "2017": "",
    "2018": "",
    "2019": 15.64035,
    "Goal": 12,
    "Target": 12.3,
    "Indicator": "12.3.1",
    "SeriesCode": "AG_FOOD_WST_PC",
    "SeriesDescription": "Food waste per capita (KG)",
    "GeoAreaCode": 222,
    "GeoAreaName": "El Salvador",
    "Food Waste Sector": "RTL",
    "Units": "KG",
    "FoodTotal": 123.37295,
    "lat": 13.794185,
    "long": -88.89653
  },
  {
    "2016": "",
    "2017": "",
    "2018": "",
    "2019": 15.64044,
    "Goal": 12,
    "Target": 12.3,
    "Indicator": "12.3.1",
    "SeriesCode": "AG_FOOD_WST_PC",
    "SeriesDescription": "Food waste per capita (KG)",
    "GeoAreaCode": 226,
    "GeoAreaName": "Equatorial Guinea",
    "Food Waste Sector": "RTL",
    "Units": "KG",
    "FoodTotal": 135.22987,
    "lat": 1.650801,
    "long": 10.267895
  },
  {
    "2016": "",
    "2017": "",
    "2018": "",
    "2019": 15.64022,
    "Goal": 12,
    "Target": 12.3,
    "Indicator": "12.3.1",
    "SeriesCode": "AG_FOOD_WST_PC",
    "SeriesDescription": "Food waste per capita (KG)",
    "GeoAreaCode": 231,
    "GeoAreaName": "Ethiopia",
    "Food Waste Sector": "RTL",
    "Units": "KG",
    "FoodTotal": 135.43098,
    "lat": 9.145,
    "long": 40.489673
  },
  {
    "2016": "",
    "2017": "",
    "2018": "",
    "2019": 15.64015,
    "Goal": 12,
    "Target": 12.3,
    "Indicator": "12.3.1",
    "SeriesCode": "AG_FOOD_WST_PC",
    "SeriesDescription": "Food waste per capita (KG)",
    "GeoAreaCode": 232,
    "GeoAreaName": "Eritrea",
    "Food Waste Sector": "RTL",
    "Units": "KG",
    "FoodTotal": 145.98192,
    "lat": 15.179384,
    "long": 39.782334
  },
  {
    "2016": "",
    "2017": "",
    "2018": "",
    "2019": 4.70923,
    "Goal": 12,
    "Target": 12.3,
    "Indicator": "12.3.1",
    "SeriesCode": "AG_FOOD_WST_PC",
    "SeriesDescription": "Food waste per capita (KG)",
    "GeoAreaCode": 233,
    "GeoAreaName": "Estonia",
    "Food Waste Sector": "RTL",
    "Units": "KG",
    "FoodTotal": 98.81866,
    "lat": 58.595272,
    "long": 25.013607
  },
  {
    "2016": "",
    "2017": "",
    "2018": "",
    "2019": 12.81736,
    "Goal": 12,
    "Target": 12.3,
    "Indicator": "12.3.1",
    "SeriesCode": "AG_FOOD_WST_PC",
    "SeriesDescription": "Food waste per capita (KG)",
    "GeoAreaCode": 234,
    "GeoAreaName": "Faroe Islands",
    "Food Waste Sector": "RTL",
    "Units": "KG",
    "FoodTotal": 114.62134,
    "lat": 61.892635,
    "long": -6.911806
  },
  {
    "2016": "",
    "2017": "",
    "2018": "",
    "2019": 15.64102,
    "Goal": 12,
    "Target": 12.3,
    "Indicator": "12.3.1",
    "SeriesCode": "AG_FOOD_WST_PC",
    "SeriesDescription": "Food waste per capita (KG)",
    "GeoAreaCode": 242,
    "GeoAreaName": "Fiji",
    "Food Waste Sector": "RTL",
    "Units": "KG",
    "FoodTotal": 119.00744,
    "lat": -16.578193,
    "long": 179.414413
  },
  {
    "2016": "",
    "2017": "",
    "2018": "",
    "2019": 12.8114,
    "Goal": 12,
    "Target": 12.3,
    "Indicator": "12.3.1",
    "SeriesCode": "AG_FOOD_WST_PC",
    "SeriesDescription": "Food waste per capita (KG)",
    "GeoAreaCode": 246,
    "GeoAreaName": "Finland",
    "Food Waste Sector": "RTL",
    "Units": "KG",
    "FoodTotal": 101.54065,
    "lat": 61.92411,
    "long": 25.748151
  },
  {
    "2016": "",
    "2017": "",
    "2018": "",
    "2019": 25.60379,
    "Goal": 12,
    "Target": 12.3,
    "Indicator": "12.3.1",
    "SeriesCode": "AG_FOOD_WST_PC",
    "SeriesDescription": "Food waste per capita (KG)",
    "GeoAreaCode": 250,
    "GeoAreaName": "France",
    "Food Waste Sector": "RTL",
    "Units": "KG",
    "FoodTotal": 134.87705,
    "lat": 46.227638,
    "long": 2.213749
  },
  {
    "2016": "",
    "2017": 3.20507,
    "2018": 5.61258,
    "2019": 7.96705,
    "Goal": 12,
    "Target": 12.4,
    "Indicator": "12.4.2",
    "SeriesCode": "EN_HAZ_PCAP",
    "SeriesDescription": "Hazardous waste generated, per capita (Kg)",
    "GeoAreaCode": 254,
    "GeoAreaName": "French Guiana",
    "Food Waste Sector": "N/A",
    "Units": "KG",
    "FoodTotal": "",
    "lat": 3.933889,
    "long": -53.125782
  },
  {
    "2016": "",
    "2017": "",
    "2018": "",
    "2019": 12.812,
    "Goal": 12,
    "Target": 12.3,
    "Indicator": "12.3.1",
    "SeriesCode": "AG_FOOD_WST_PC",
    "SeriesDescription": "Food waste per capita (KG)",
    "GeoAreaCode": 258,
    "GeoAreaName": "French Polynesia",
    "Food Waste Sector": "RTL",
    "Units": "KG",
    "FoodTotal": 117.07835,
    "lat": -17.679742,
    "long": -149.406843
  },
  {
    "2016": "",
    "2017": "",
    "2018": "",
    "2019": 15.64092,
    "Goal": 12,
    "Target": 12.3,
    "Indicator": "12.3.1",
    "SeriesCode": "AG_FOOD_WST_PC",
    "SeriesDescription": "Food waste per capita (KG)",
    "GeoAreaCode": 262,
    "GeoAreaName": "Djibouti",
    "Food Waste Sector": "RTL",
    "Units": "KG",
    "FoodTotal": 142.88592,
    "lat": 11.825138,
    "long": 42.590275
  },
  {
    "2016": "",
    "2017": "",
    "2018": "",
    "2019": 15.64039,
    "Goal": 12,
    "Target": 12.3,
    "Indicator": "12.3.1",
    "SeriesCode": "AG_FOOD_WST_PC",
    "SeriesDescription": "Food waste per capita (KG)",
    "GeoAreaCode": 266,
    "GeoAreaName": "Gabon",
    "Food Waste Sector": "RTL",
    "Units": "KG",
    "FoodTotal": 135.22944,
    "lat": -0.803689,
    "long": 11.609444
  },
  {
    "2016": "",
    "2017": "",
    "2018": "",
    "2019": 15.64038,
    "Goal": 12,
    "Target": 12.3,
    "Indicator": "12.3.1",
    "SeriesCode": "AG_FOOD_WST_PC",
    "SeriesDescription": "Food waste per capita (KG)",
    "GeoAreaCode": 268,
    "GeoAreaName": "Georgia",
    "Food Waste Sector": "RTL",
    "Units": "KG",
    "FoodTotal": 144.26368,
    "lat": 42.315407,
    "long": 43.356892
  },
  {
    "2016": "",
    "2017": "",
    "2018": "",
    "2019": 15.64026,
    "Goal": 12,
    "Target": 12.3,
    "Indicator": "12.3.1",
    "SeriesCode": "AG_FOOD_WST_PC",
    "SeriesDescription": "Food waste per capita (KG)",
    "GeoAreaCode": 270,
    "GeoAreaName": "Gambia",
    "Food Waste Sector": "RTL",
    "Units": "KG",
    "FoodTotal": 145.98289,
    "lat": 13.443182,
    "long": -15.310139
  },
  {
    "2016": "",
    "2017": "",
    "2018": "",
    "2019": 15.64016,
    "Goal": 12,
    "Target": 12.3,
    "Indicator": "12.3.1",
    "SeriesCode": "AG_FOOD_WST_PC",
    "SeriesDescription": "Food waste per capita (KG)",
    "GeoAreaCode": 275,
    "GeoAreaName": "State of Palestine",
    "Food Waste Sector": "RTL",
    "Units": "KG",
    "FoodTotal": 143.98261,
    "lat": 31.9522,
    "long": 35.2332
  },
  {
    "2016": "",
    "2017": "",
    "2018": "",
    "2019": 5.96577,
    "Goal": 12,
    "Target": 12.3,
    "Indicator": "12.3.1",
    "SeriesCode": "AG_FOOD_WST_PC",
    "SeriesDescription": "Food waste per capita (KG)",
    "GeoAreaCode": 276,
    "GeoAreaName": "Germany",
    "Food Waste Sector": "RTL",
    "Units": "KG",
    "FoodTotal": 101.54156,
    "lat": 51.165691,
    "long": 10.451526
  },
  {
    "2016": "",
    "2017": "",
    "2018": "",
    "2019": 15.64025,
    "Goal": 12,
    "Target": 12.3,
    "Indicator": "12.3.1",
    "SeriesCode": "AG_FOOD_WST_PC",
    "SeriesDescription": "Food waste per capita (KG)",
    "GeoAreaCode": 288,
    "GeoAreaName": "Ghana",
    "Food Waste Sector": "RTL",
    "Units": "KG",
    "FoodTotal": 127.29598,
    "lat": 7.946527,
    "long": -1.023194
  },
  {
    "2016": "",
    "2017": "",
    "2018": "",
    "2019": 12.80903,
    "Goal": 12,
    "Target": 12.3,
    "Indicator": "12.3.1",
    "SeriesCode": "AG_FOOD_WST_PC",
    "SeriesDescription": "Food waste per capita (KG)",
    "GeoAreaCode": 292,
    "GeoAreaName": "Gibraltar",
    "Food Waste Sector": "RTL",
    "Units": "KG",
    "FoodTotal": 122.63228,
    "lat": 36.137741,
    "long": -5.345374
  },
  {
    "2016": "",
    "2017": "",
    "2018": "",
    "2019": 15.63916,
    "Goal": 12,
    "Target": 12.3,
    "Indicator": "12.3.1",
    "SeriesCode": "AG_FOOD_WST_PC",
    "SeriesDescription": "Food waste per capita (KG)",
    "GeoAreaCode": 296,
    "GeoAreaName": "Kiribati",
    "Food Waste Sector": "RTL",
    "Units": "KG",
    "FoodTotal": 134.29534,
    "lat": -3.370417,
    "long": -168.734039
  },
  {
    "2016": "",
    "2017": "",
    "2018": "",
    "2019": 7.38358,
    "Goal": 12,
    "Target": 12.3,
    "Indicator": "12.3.1",
    "SeriesCode": "AG_FOOD_WST_PC",
    "SeriesDescription": "Food waste per capita (KG)",
    "GeoAreaCode": 300,
    "GeoAreaName": "Greece",
    "Food Waste Sector": "RTL",
    "Units": "KG",
    "FoodTotal": 174.64531,
    "lat": 39.074208,
    "long": 21.824312
  },
  {
    "2016": "",
    "2017": "",
    "2018": "",
    "2019": 12.82035,
    "Goal": 12,
    "Target": 12.3,
    "Indicator": "12.3.1",
    "SeriesCode": "AG_FOOD_WST_PC",
    "SeriesDescription": "Food waste per capita (KG)",
    "GeoAreaCode": 304,
    "GeoAreaName": "Greenland",
    "Food Waste Sector": "RTL",
    "Units": "KG",
    "FoodTotal": 112.14972,
    "lat": 71.706936,
    "long": -42.604303
  },
  {
    "2016": "",
    "2017": "",
    "2018": "",
    "2019": 15.63995,
    "Goal": 12,
    "Target": 12.3,
    "Indicator": "12.3.1",
    "SeriesCode": "AG_FOOD_WST_PC",
    "SeriesDescription": "Food waste per capita (KG)",
    "GeoAreaCode": 308,
    "GeoAreaName": "Grenada",
    "Food Waste Sector": "RTL",
    "Units": "KG",
    "FoodTotal": 115.7184,
    "lat": 12.262776,
    "long": -61.604171
  },
  {
    "2016": 25.07505,
    "2017": 27.51458,
    "2018": 28.52584,
    "2019": 30.0289,
    "Goal": 12,
    "Target": 12.4,
    "Indicator": "12.4.2",
    "SeriesCode": "EN_HAZ_PCAP",
    "SeriesDescription": "Hazardous waste generated, per capita (Kg)",
    "GeoAreaCode": 312,
    "GeoAreaName": "Guadeloupe",
    "Food Waste Sector": "N/A",
    "Units": "KG",
    "FoodTotal": "",
    "lat": 16.995971,
    "long": -62.067641
  },
  {
    "2016": "",
    "2017": "",
    "2018": "",
    "2019": 12.81169,
    "Goal": 12,
    "Target": 12.3,
    "Indicator": "12.3.1",
    "SeriesCode": "AG_FOOD_WST_PC",
    "SeriesDescription": "Food waste per capita (KG)",
    "GeoAreaCode": 316,
    "GeoAreaName": "Guam",
    "Food Waste Sector": "RTL",
    "Units": "KG",
    "FoodTotal": 117.07555,
    "lat": 13.444304,
    "long": 144.793731
  },
  {
    "2016": "",
    "2017": "",
    "2018": "",
    "2019": 15.64025,
    "Goal": 12,
    "Target": 12.3,
    "Indicator": "12.3.1",
    "SeriesCode": "AG_FOOD_WST_PC",
    "SeriesDescription": "Food waste per capita (KG)",
    "GeoAreaCode": 320,
    "GeoAreaName": "Guatemala",
    "Food Waste Sector": "RTL",
    "Units": "KG",
    "FoodTotal": 115.72062,
    "lat": 15.783471,
    "long": -90.230759
  },
  {
    "2016": "",
    "2017": "",
    "2018": "",
    "2019": 15.64017,
    "Goal": 12,
    "Target": 12.3,
    "Indicator": "12.3.1",
    "SeriesCode": "AG_FOOD_WST_PC",
    "SeriesDescription": "Food waste per capita (KG)",
    "GeoAreaCode": 324,
    "GeoAreaName": "Guinea",
    "Food Waste Sector": "RTL",
    "Units": "KG",
    "FoodTotal": 145.9821,
    "lat": 9.945587,
    "long": -9.696645
  },
  {
    "2016": "",
    "2017": "",
    "2018": "",
    "2019": 15.64073,
    "Goal": 12,
    "Target": 12.3,
    "Indicator": "12.3.1",
    "SeriesCode": "AG_FOOD_WST_PC",
    "SeriesDescription": "Food waste per capita (KG)",
    "GeoAreaCode": 328,
    "GeoAreaName": "Guyana",
    "Food Waste Sector": "RTL",
    "Units": "KG",
    "FoodTotal": 115.72417,
    "lat": 4.860416,
    "long": -58.93018
  },
  {
    "2016": "",
    "2017": "",
    "2018": "",
    "2019": 15.64026,
    "Goal": 12,
    "Target": 12.3,
    "Indicator": "12.3.1",
    "SeriesCode": "AG_FOOD_WST_PC",
    "SeriesDescription": "Food waste per capita (KG)",
    "GeoAreaCode": 332,
    "GeoAreaName": "Haiti",
    "Food Waste Sector": "RTL",
    "Units": "KG",
    "FoodTotal": 126.47527,
    "lat": 18.971187,
    "long": -72.285215
  },
  {
    "2016": "",
    "2017": "",
    "2018": "",
    "2019": 15.6402,
    "Goal": 12,
    "Target": 12.3,
    "Indicator": "12.3.1",
    "SeriesCode": "AG_FOOD_WST_PC",
    "SeriesDescription": "Food waste per capita (KG)",
    "GeoAreaCode": 340,
    "GeoAreaName": "Honduras",
    "Food Waste Sector": "RTL",
    "Units": "KG",
    "FoodTotal": 123.3718,
    "lat": 15.199999,
    "long": -86.241905
  },
  {
    "2016": "",
    "2017": "",
    "2018": "",
    "2019": 12.81138,
    "Goal": 12,
    "Target": 12.3,
    "Indicator": "12.3.1",
    "SeriesCode": "AG_FOOD_WST_PC",
    "SeriesDescription": "Food waste per capita (KG)",
    "GeoAreaCode": 344,
    "GeoAreaName": "Hong Kong",
    "Food Waste Sector": "RTL",
    "Units": "KG",
    "FoodTotal": 109.78778,
    "lat": 22.396428,
    "long": 114.109497
  },
  {
    "2016": "",
    "2017": "",
    "2018": "",
    "2019": 12.81134,
    "Goal": 12,
    "Target": 12.3,
    "Indicator": "12.3.1",
    "SeriesCode": "AG_FOOD_WST_PC",
    "SeriesDescription": "Food waste per capita (KG)",
    "GeoAreaCode": 348,
    "GeoAreaName": "Hungary",
    "Food Waste Sector": "RTL",
    "Units": "KG",
    "FoodTotal": 132.20722,
    "lat": 47.162494,
    "long": 19.503304
  },
  {
    "2016": "",
    "2017": "",
    "2018": "",
    "2019": 12.80991,
    "Goal": 12,
    "Target": 12.3,
    "Indicator": "12.3.1",
    "SeriesCode": "AG_FOOD_WST_PC",
    "SeriesDescription": "Food waste per capita (KG)",
    "GeoAreaCode": 352,
    "GeoAreaName": "Iceland",
    "Food Waste Sector": "RTL",
    "Units": "KG",
    "FoodTotal": 114.55471,
    "lat": 64.963051,
    "long": -19.020835
  },
  {
    "2016": "",
    "2017": "",
    "2018": "",
    "2019": 15.64023,
    "Goal": 12,
    "Target": 12.3,
    "Indicator": "12.3.1",
    "SeriesCode": "AG_FOOD_WST_PC",
    "SeriesDescription": "Food waste per capita (KG)",
    "GeoAreaCode": 356,
    "GeoAreaName": "India",
    "Food Waste Sector": "RTL",
    "Units": "KG",
    "FoodTotal": 93.60979,
    "lat": 20.593684,
    "long": 78.96288
  },
  {
    "2016": 3.88856,
    "2017": 5.3581,
    "2018": 6.98032,
    "2019": 6.32254,
    "Goal": 12,
    "Target": 12.4,
    "Indicator": "12.4.2",
    "SeriesCode": "EN_HAZ_PCAP",
    "SeriesDescription": "Hazardous waste generated, per capita (Kg)",
    "GeoAreaCode": 356,
    "GeoAreaName": "India",
    "Food Waste Sector": "N/A",
    "Units": "KG",
    "FoodTotal": "",
    "lat": 20.593684,
    "long": 78.96288
  },
  {
    "2016": "",
    "2017": "",
    "2018": "",
    "2019": 15.64023,
    "Goal": 12,
    "Target": 12.3,
    "Indicator": "12.3.1",
    "SeriesCode": "AG_FOOD_WST_PC",
    "SeriesDescription": "Food waste per capita (KG)",
    "GeoAreaCode": 360,
    "GeoAreaName": "Indonesia",
    "Food Waste Sector": "RTL",
    "Units": "KG",
    "FoodTotal": 120.65813,
    "lat": -0.789275,
    "long": 113.921327
  },
  {
    "2016": "",
    "2017": "",
    "2018": "",
    "2019": 15.64023,
    "Goal": 12,
    "Target": 12.3,
    "Indicator": "12.3.1",
    "SeriesCode": "AG_FOOD_WST_PC",
    "SeriesDescription": "Food waste per capita (KG)",
    "GeoAreaCode": 364,
    "GeoAreaName": "Iran (Islamic Republic of)",
    "Food Waste Sector": "RTL",
    "Units": "KG",
    "FoodTotal": 114.26365,
    "lat": 32.427908,
    "long": 53.688046
  },
  {
    "2016": "",
    "2017": "",
    "2018": "",
    "2019": 15.64023,
    "Goal": 12,
    "Target": 12.3,
    "Indicator": "12.3.1",
    "SeriesCode": "AG_FOOD_WST_PC",
    "SeriesDescription": "Food waste per capita (KG)",
    "GeoAreaCode": 368,
    "GeoAreaName": "Iraq",
    "Food Waste Sector": "RTL",
    "Units": "KG",
    "FoodTotal": 163.72738,
    "lat": 33.223191,
    "long": 43.679291
  },
  {
    "2016": 0.52288,
    "2017": 0.45891,
    "2018": 0.54931,
    "2019": 0.66235,
    "Goal": 12,
    "Target": 12.4,
    "Indicator": "12.4.2",
    "SeriesCode": "EN_HAZ_PCAP",
    "SeriesDescription": "Hazardous waste generated, per capita (Kg)",
    "GeoAreaCode": 368,
    "GeoAreaName": "Iraq",
    "Food Waste Sector": "N/A",
    "Units": "KG",
    "FoodTotal": "",
    "lat": 33.223191,
    "long": 43.679291
  },
  {
    "2016": "",
    "2017": "",
    "2018": "",
    "2019": 12.81131,
    "Goal": 12,
    "Target": 12.3,
    "Indicator": "12.3.1",
    "SeriesCode": "AG_FOOD_WST_PC",
    "SeriesDescription": "Food waste per capita (KG)",
    "GeoAreaCode": 372,
    "GeoAreaName": "Ireland",
    "Food Waste Sector": "RTL",
    "Units": "KG",
    "FoodTotal": 123.65778,
    "lat": 53.41291,
    "long": -8.24389
  },
  {
    "2016": "",
    "2017": "",
    "2018": "",
    "2019": 51.41187,
    "Goal": 12,
    "Target": 12.3,
    "Indicator": "12.3.1",
    "SeriesCode": "AG_FOOD_WST_PC",
    "SeriesDescription": "Food waste per capita (KG)",
    "GeoAreaCode": 376,
    "GeoAreaName": "Israel",
    "Food Waste Sector": "RTL",
    "Units": "KG",
    "FoodTotal": 178.43382,
    "lat": 31.046051,
    "long": 34.851612
  },
  {
    "2016": "",
    "2017": "",
    "2018": "",
    "2019": 3.62595,
    "Goal": 12,
    "Target": 12.3,
    "Indicator": "12.3.1",
    "SeriesCode": "AG_FOOD_WST_PC",
    "SeriesDescription": "Food waste per capita (KG)",
    "GeoAreaCode": 380,
    "GeoAreaName": "Italy",
    "Food Waste Sector": "RTL",
    "Units": "KG",
    "FoodTotal": 96.24509,
    "lat": 41.87194,
    "long": 12.56738
  },
  {
    "2016": "",
    "2017": "",
    "2018": "",
    "2019": 15.6402,
    "Goal": 12,
    "Target": 12.3,
    "Indicator": "12.3.1",
    "SeriesCode": "AG_FOOD_WST_PC",
    "SeriesDescription": "Food waste per capita (KG)",
    "GeoAreaCode": 384,
    "GeoAreaName": "CÃ´te d'Ivoire",
    "Food Waste Sector": "RTL",
    "Units": "KG",
    "FoodTotal": 142.87931,
    "lat": 7.539989,
    "long": -5.54708
  },
  {
    "2016": "",
    "2017": "",
    "2018": "",
    "2019": 15.64035,
    "Goal": 12,
    "Target": 12.3,
    "Indicator": "12.3.1",
    "SeriesCode": "AG_FOOD_WST_PC",
    "SeriesDescription": "Food waste per capita (KG)",
    "GeoAreaCode": 388,
    "GeoAreaName": "Jamaica",
    "Food Waste Sector": "RTL",
    "Units": "KG",
    "FoodTotal": 115.72137,
    "lat": 18.109581,
    "long": -77.297508
  },
  {
    "2016": "",
    "2017": "",
    "2018": "",
    "2019": 8.63397,
    "Goal": 12,
    "Target": 12.3,
    "Indicator": "12.3.1",
    "SeriesCode": "AG_FOOD_WST_PC",
    "SeriesDescription": "Food waste per capita (KG)",
    "GeoAreaCode": 392,
    "GeoAreaName": "Japan",
    "Food Waste Sector": "RTL",
    "Units": "KG",
    "FoodTotal": 87.70226,
    "lat": 36.204824,
    "long": 138.252924
  },
  {
    "2016": "",
    "2017": "",
    "2018": "",
    "2019": 15.6402,
    "Goal": 12,
    "Target": 12.3,
    "Indicator": "12.3.1",
    "SeriesCode": "AG_FOOD_WST_PC",
    "SeriesDescription": "Food waste per capita (KG)",
    "GeoAreaCode": 398,
    "GeoAreaName": "Kazakhstan",
    "Food Waste Sector": "RTL",
    "Units": "KG",
    "FoodTotal": 119.00123,
    "lat": 48.019573,
    "long": 66.923684
  },
  {
    "2016": 0.04991,
    "2017": 0.57128,
    "2018": 0.21835,
    "2019": 0.07115,
    "Goal": 12,
    "Target": 12.4,
    "Indicator": "12.4.2",
    "SeriesCode": "EN_EWT_GENPCAP",
    "SeriesDescription": "Electronic waste generated, per capita (Kg)",
    "GeoAreaCode": 398,
    "GeoAreaName": "Kazakhstan",
    "Food Waste Sector": "N/A",
    "Units": "KG",
    "FoodTotal": "",
    "lat": 48.019573,
    "long": 66.923684
  },
  {
    "2016": 8490.37833,
    "2017": 7017.37514,
    "2018": 8185.89211,
    "2019": 9730.07318,
    "Goal": 12,
    "Target": 12.4,
    "Indicator": "12.4.2",
    "SeriesCode": "EN_HAZ_PCAP",
    "SeriesDescription": "Hazardous waste generated, per capita (Kg)",
    "GeoAreaCode": 398,
    "GeoAreaName": "Kazakhstan",
    "Food Waste Sector": "N/A",
    "Units": "KG",
    "FoodTotal": "",
    "lat": 48.019573,
    "long": 66.923684
  },
  {
    "2016": "",
    "2017": "",
    "2018": "",
    "2019": 15.64023,
    "Goal": 12,
    "Target": 12.3,
    "Indicator": "12.3.1",
    "SeriesCode": "AG_FOOD_WST_PC",
    "SeriesDescription": "Food waste per capita (KG)",
    "GeoAreaCode": 400,
    "GeoAreaName": "Jordan",
    "Food Waste Sector": "RTL",
    "Units": "KG",
    "FoodTotal": 136.33175,
    "lat": 30.585164,
    "long": 36.238414
  },
  {
    "2016": "",
    "2017": "",
    "2018": "",
    "2019": 10.9638,
    "Goal": 12,
    "Target": 12.3,
    "Indicator": "12.3.1",
    "SeriesCode": "AG_FOOD_WST_PC",
    "SeriesDescription": "Food waste per capita (KG)",
    "GeoAreaCode": 404,
    "GeoAreaName": "Kenya",
    "Food Waste Sector": "RTL",
    "Units": "KG",
    "FoodTotal": 141.33986,
    "lat": -0.023559,
    "long": 37.906193
  },
  {
    "2016": "",
    "2017": "",
    "2018": "",
    "2019": 15.64025,
    "Goal": 12,
    "Target": 12.3,
    "Indicator": "12.3.1",
    "SeriesCode": "AG_FOOD_WST_PC",
    "SeriesDescription": "Food waste per capita (KG)",
    "GeoAreaCode": 408,
    "GeoAreaName": "South Korea",
    "Food Waste Sector": "RTL",
    "Units": "KG",
    "FoodTotal": 123.95988,
    "lat": 35.907757,
    "long": 127.766922
  },
  {
    "2016": "",
    "2017": "",
    "2018": "",
    "2019": 12.8113,
    "Goal": 12,
    "Target": 12.3,
    "Indicator": "12.3.1",
    "SeriesCode": "AG_FOOD_WST_PC",
    "SeriesDescription": "Food waste per capita (KG)",
    "GeoAreaCode": 410,
    "GeoAreaName": "North Korea",
    "Food Waste Sector": "RTL",
    "Units": "KG",
    "FoodTotal": 109.7871,
    "lat": 40.339852,
    "long": 127.510093
  },
  {
    "2016": "",
    "2017": "",
    "2018": "",
    "2019": 12.81138,
    "Goal": 12,
    "Target": 12.3,
    "Indicator": "12.3.1",
    "SeriesCode": "AG_FOOD_WST_PC",
    "SeriesDescription": "Food waste per capita (KG)",
    "GeoAreaCode": 414,
    "GeoAreaName": "Kuwait",
    "Food Waste Sector": "RTL",
    "Units": "KG",
    "FoodTotal": 132.91448,
    "lat": 29.31166,
    "long": 47.481766
  },
  {
    "2016": "",
    "2017": "",
    "2018": "",
    "2019": 15.64035,
    "Goal": 12,
    "Target": 12.3,
    "Indicator": "12.3.1",
    "SeriesCode": "AG_FOOD_WST_PC",
    "SeriesDescription": "Food waste per capita (KG)",
    "GeoAreaCode": 417,
    "GeoAreaName": "Kyrgyzstan",
    "Food Waste Sector": "RTL",
    "Units": "KG",
    "FoodTotal": 134.30551,
    "lat": 41.20438,
    "long": 74.766098
  },
  {
    "2016": "",
    "2017": "",
    "2018": "",
    "2019": 15.64032,
    "Goal": 12,
    "Target": 12.3,
    "Indicator": "12.3.1",
    "SeriesCode": "AG_FOOD_WST_PC",
    "SeriesDescription": "Food waste per capita (KG)",
    "GeoAreaCode": 418,
    "GeoAreaName": "Laos",
    "Food Waste Sector": "RTL",
    "Units": "KG",
    "FoodTotal": 129.62622,
    "lat": 19.85627,
    "long": 102.495496
  },
  {
    "2016": "",
    "2017": "",
    "2018": "",
    "2019": 15.64021,
    "Goal": 12,
    "Target": 12.3,
    "Indicator": "12.3.1",
    "SeriesCode": "AG_FOOD_WST_PC",
    "SeriesDescription": "Food waste per capita (KG)",
    "GeoAreaCode": 422,
    "GeoAreaName": "Lebanon",
    "Food Waste Sector": "RTL",
    "Units": "KG",
    "FoodTotal": 147.94427,
    "lat": 33.854721,
    "long": 35.862285
  },
  {
    "2016": "",
    "2017": "",
    "2018": "",
    "2019": 15.64047,
    "Goal": 12,
    "Target": 12.3,
    "Indicator": "12.3.1",
    "SeriesCode": "AG_FOOD_WST_PC",
    "SeriesDescription": "Food waste per capita (KG)",
    "GeoAreaCode": 426,
    "GeoAreaName": "Lesotho",
    "Food Waste Sector": "RTL",
    "Units": "KG",
    "FoodTotal": 142.88181,
    "lat": -29.609988,
    "long": 28.233608
  },
  {
    "2016": "",
    "2017": "",
    "2018": "",
    "2019": 12.81104,
    "Goal": 12,
    "Target": 12.3,
    "Indicator": "12.3.1",
    "SeriesCode": "AG_FOOD_WST_PC",
    "SeriesDescription": "Food waste per capita (KG)",
    "GeoAreaCode": 428,
    "GeoAreaName": "Latvia",
    "Food Waste Sector": "RTL",
    "Units": "KG",
    "FoodTotal": 114.5648,
    "lat": 56.879635,
    "long": 24.603189
  },
  {
    "2016": "",
    "2017": "",
    "2018": "",
    "2019": 15.64031,
    "Goal": 12,
    "Target": 12.3,
    "Indicator": "12.3.1",
    "SeriesCode": "AG_FOOD_WST_PC",
    "SeriesDescription": "Food waste per capita (KG)",
    "GeoAreaCode": 430,
    "GeoAreaName": "Liberia",
    "Food Waste Sector": "RTL",
    "Units": "KG",
    "FoodTotal": 145.9834,
    "lat": 6.428055,
    "long": -9.429499
  },
  {
    "2016": "",
    "2017": "",
    "2018": "",
    "2019": 15.64034,
    "Goal": 12,
    "Target": 12.3,
    "Indicator": "12.3.1",
    "SeriesCode": "AG_FOOD_WST_PC",
    "SeriesDescription": "Food waste per capita (KG)",
    "GeoAreaCode": 434,
    "GeoAreaName": "Libya",
    "Food Waste Sector": "RTL",
    "Units": "KG",
    "FoodTotal": 119.00225,
    "lat": 26.3351,
    "long": 17.228331
  },
  {
    "2016": "",
    "2017": "",
    "2018": "",
    "2019": 12.80457,
    "Goal": 12,
    "Target": 12.3,
    "Indicator": "12.3.1",
    "SeriesCode": "AG_FOOD_WST_PC",
    "SeriesDescription": "Food waste per capita (KG)",
    "GeoAreaCode": 438,
    "GeoAreaName": "Liechtenstein",
    "Food Waste Sector": "RTL",
    "Units": "KG",
    "FoodTotal": 109.99898,
    "lat": 47.166,
    "long": 9.555373
  },
  {
    "2016": "",
    "2017": "",
    "2018": "",
    "2019": 12.81117,
    "Goal": 12,
    "Target": 12.3,
    "Indicator": "12.3.1",
    "SeriesCode": "AG_FOOD_WST_PC",
    "SeriesDescription": "Food waste per capita (KG)",
    "GeoAreaCode": 440,
    "GeoAreaName": "Lithuania",
    "Food Waste Sector": "RTL",
    "Units": "KG",
    "FoodTotal": 114.56592,
    "lat": 55.169438,
    "long": 23.881275
  },
  {
    "2016": "",
    "2017": "",
    "2018": "",
    "2019": 7.19965,
    "Goal": 12,
    "Target": 12.3,
    "Indicator": "12.3.1",
    "SeriesCode": "AG_FOOD_WST_PC",
    "SeriesDescription": "Food waste per capita (KG)",
    "GeoAreaCode": 442,
    "GeoAreaName": "Luxembourg",
    "Food Waste Sector": "RTL",
    "Units": "KG",
    "FoodTotal": 117.34428,
    "lat": 49.815273,
    "long": 6.129583
  },
  {
    "2016": "",
    "2017": "",
    "2018": "",
    "2019": 12.81039,
    "Goal": 12,
    "Target": 12.3,
    "Indicator": "12.3.1",
    "SeriesCode": "AG_FOOD_WST_PC",
    "SeriesDescription": "Food waste per capita (KG)",
    "GeoAreaCode": 446,
    "GeoAreaName": "Macau",
    "Food Waste Sector": "RTL",
    "Units": "KG",
    "FoodTotal": 109.77926,
    "lat": 22.198745,
    "long": 113.543873
  },
  {
    "2016": "",
    "2017": "",
    "2018": "",
    "2019": 15.64023,
    "Goal": 12,
    "Target": 12.3,
    "Indicator": "12.3.1",
    "SeriesCode": "AG_FOOD_WST_PC",
    "SeriesDescription": "Food waste per capita (KG)",
    "GeoAreaCode": 450,
    "GeoAreaName": "Madagascar",
    "Food Waste Sector": "RTL",
    "Units": "KG",
    "FoodTotal": 145.98261,
    "lat": -18.766947,
    "long": 46.869107
  },
  {
    "2016": "",
    "2017": "",
    "2018": "",
    "2019": 15.64019,
    "Goal": 12,
    "Target": 12.3,
    "Indicator": "12.3.1",
    "SeriesCode": "AG_FOOD_WST_PC",
    "SeriesDescription": "Food waste per capita (KG)",
    "GeoAreaCode": 454,
    "GeoAreaName": "Malawi",
    "Food Waste Sector": "RTL",
    "Units": "KG",
    "FoodTotal": 145.98225,
    "lat": -13.254308,
    "long": 34.301525
  },
  {
    "2016": "",
    "2017": "",
    "2018": "",
    "2019": 78.8174,
    "Goal": 12,
    "Target": 12.3,
    "Indicator": "12.3.1",
    "SeriesCode": "AG_FOOD_WST_PC",
    "SeriesDescription": "Food waste per capita (KG)",
    "GeoAreaCode": 458,
    "GeoAreaName": "Malaysia",
    "Food Waste Sector": "RTL",
    "Units": "KG",
    "FoodTotal": 259.82373,
    "lat": 4.210484,
    "long": 101.975766
  },
  {
    "2016": 90.16278,
    "2017": 64.85463,
    "2018": 74.69813,
    "2019": 125.60925,
    "Goal": 12,
    "Target": 12.4,
    "Indicator": "12.4.2",
    "SeriesCode": "EN_HAZ_PCAP",
    "SeriesDescription": "Hazardous waste generated, per capita (Kg)",
    "GeoAreaCode": 458,
    "GeoAreaName": "Malaysia",
    "Food Waste Sector": "N/A",
    "Units": "KG",
    "FoodTotal": "",
    "lat": 4.210484,
    "long": 101.975766
  },
  {
    "2016": "",
    "2017": "",
    "2018": "",
    "2019": 15.6415,
    "Goal": 12,
    "Target": 12.3,
    "Indicator": "12.3.1",
    "SeriesCode": "AG_FOOD_WST_PC",
    "SeriesDescription": "Food waste per capita (KG)",
    "GeoAreaCode": 462,
    "GeoAreaName": "Maldives",
    "Food Waste Sector": "RTL",
    "Units": "KG",
    "FoodTotal": 114.2729,
    "lat": 3.202778,
    "long": 73.22068
  },
  {
    "2016": "",
    "2017": "",
    "2018": "",
    "2019": 15.64021,
    "Goal": 12,
    "Target": 12.3,
    "Indicator": "12.3.1",
    "SeriesCode": "AG_FOOD_WST_PC",
    "SeriesDescription": "Food waste per capita (KG)",
    "GeoAreaCode": 466,
    "GeoAreaName": "Mali",
    "Food Waste Sector": "RTL",
    "Units": "KG",
    "FoodTotal": 145.98246,
    "lat": 17.570692,
    "long": -3.996166
  },
  {
    "2016": "",
    "2017": "",
    "2018": "",
    "2019": 12.81198,
    "Goal": 12,
    "Target": 12.3,
    "Indicator": "12.3.1",
    "SeriesCode": "AG_FOOD_WST_PC",
    "SeriesDescription": "Food waste per capita (KG)",
    "GeoAreaCode": 470,
    "GeoAreaName": "Malta",
    "Food Waste Sector": "RTL",
    "Units": "KG",
    "FoodTotal": 167.39047,
    "lat": 35.937496,
    "long": 14.375416
  },
  {
    "2016": 41.79262,
    "2017": 23.36506,
    "2018": 51.48374,
    "2019": 11.71327,
    "Goal": 12,
    "Target": 12.4,
    "Indicator": "12.4.2",
    "SeriesCode": "EN_HAZ_PCAP",
    "SeriesDescription": "Hazardous waste generated, per capita (Kg)",
    "GeoAreaCode": 474,
    "GeoAreaName": "Martinique",
    "Food Waste Sector": "N/A",
    "Units": "KG",
    "FoodTotal": "",
    "lat": 14.641528,
    "long": -61.024174
  },
  {
    "2016": "",
    "2017": "",
    "2018": "",
    "2019": 15.64024,
    "Goal": 12,
    "Target": 12.3,
    "Indicator": "12.3.1",
    "SeriesCode": "AG_FOOD_WST_PC",
    "SeriesDescription": "Food waste per capita (KG)",
    "GeoAreaCode": 478,
    "GeoAreaName": "Mauritania",
    "Food Waste Sector": "RTL",
    "Units": "KG",
    "FoodTotal": 142.87967,
    "lat": 21.00789,
    "long": -10.940835
  },
  {
    "2016": "",
    "2017": "",
    "2018": "",
    "2019": 12.81161,
    "Goal": 12,
    "Target": 12.3,
    "Indicator": "12.3.1",
    "SeriesCode": "AG_FOOD_WST_PC",
    "SeriesDescription": "Food waste per capita (KG)",
    "GeoAreaCode": 480,
    "GeoAreaName": "Mauritius",
    "Food Waste Sector": "RTL",
    "Units": "KG",
    "FoodTotal": 131.81321,
    "lat": -20.348404,
    "long": 57.552152
  },
  {
    "2016": "",
    "2017": "",
    "2018": "",
    "2019": 15.64023,
    "Goal": 12,
    "Target": 12.3,
    "Indicator": "12.3.1",
    "SeriesCode": "AG_FOOD_WST_PC",
    "SeriesDescription": "Food waste per capita (KG)",
    "GeoAreaCode": 484,
    "GeoAreaName": "Mexico",
    "Food Waste Sector": "RTL",
    "Units": "KG",
    "FoodTotal": 137.18847,
    "lat": 23.634501,
    "long": -102.552784
  },
  {
    "2016": "",
    "2017": "",
    "2018": "",
    "2019": 12.82216,
    "Goal": 12,
    "Target": 12.3,
    "Indicator": "12.3.1",
    "SeriesCode": "AG_FOOD_WST_PC",
    "SeriesDescription": "Food waste per capita (KG)",
    "GeoAreaCode": 492,
    "GeoAreaName": "Monaco",
    "Food Waste Sector": "RTL",
    "Units": "KG",
    "FoodTotal": 110.15007,
    "lat": 43.750298,
    "long": 7.412841
  },
  {
    "2016": 10.06751,
    "2017": 5.25292,
    "2018": "",
    "2019": "",
    "Goal": 12,
    "Target": 12.4,
    "Indicator": "12.4.2",
    "SeriesCode": "EN_HAZ_PCAP",
    "SeriesDescription": "Hazardous waste generated, per capita (Kg)",
    "GeoAreaCode": 492,
    "GeoAreaName": "Monaco",
    "Food Waste Sector": "N/A",
    "Units": "KG",
    "FoodTotal": "",
    "lat": 43.750298,
    "long": 7.412841
  },
  {
    "2016": "",
    "2017": "",
    "2018": "",
    "2019": 15.64039,
    "Goal": 12,
    "Target": 12.3,
    "Indicator": "12.3.1",
    "SeriesCode": "AG_FOOD_WST_PC",
    "SeriesDescription": "Food waste per capita (KG)",
    "GeoAreaCode": 496,
    "GeoAreaName": "Mongolia",
    "Food Waste Sector": "RTL",
    "Units": "KG",
    "FoodTotal": 120.85792,
    "lat": 46.862496,
    "long": 103.846656
  },
  {
    "2016": "",
    "2017": "",
    "2018": "",
    "2019": 98.10835,
    "Goal": 12,
    "Target": 12.4,
    "Indicator": "12.4.2",
    "SeriesCode": "EN_HAZ_PCAP",
    "SeriesDescription": "Hazardous waste generated, per capita (Kg)",
    "GeoAreaCode": 496,
    "GeoAreaName": "Mongolia",
    "Food Waste Sector": "N/A",
    "Units": "KG",
    "FoodTotal": "",
    "lat": 46.862496,
    "long": 103.846656
  },
  {
    "2016": "",
    "2017": "",
    "2018": "",
    "2019": 15.64039,
    "Goal": 12,
    "Target": 12.3,
    "Indicator": "12.3.1",
    "SeriesCode": "AG_FOOD_WST_PC",
    "SeriesDescription": "Food waste per capita (KG)",
    "GeoAreaCode": 498,
    "GeoAreaName": "Moldova",
    "Food Waste Sector": "RTL",
    "Units": "KG",
    "FoodTotal": 119.32114,
    "lat": 47.411631,
    "long": 28.369885
  },
  {
    "2016": "",
    "2017": "",
    "2018": "",
    "2019": 2.14085,
    "Goal": 12,
    "Target": 12.4,
    "Indicator": "12.4.2",
    "SeriesCode": "EN_HAZ_PCAP",
    "SeriesDescription": "Hazardous waste generated, per capita (Kg)",
    "GeoAreaCode": 498,
    "GeoAreaName": "Moldova",
    "Food Waste Sector": "N/A",
    "Units": "KG",
    "FoodTotal": "",
    "lat": 47.411631,
    "long": 28.369885
  },
  {
    "2016": "",
    "2017": "",
    "2018": "",
    "2019": 15.64053,
    "Goal": 12,
    "Target": 12.3,
    "Indicator": "12.3.1",
    "SeriesCode": "AG_FOOD_WST_PC",
    "SeriesDescription": "Food waste per capita (KG)",
    "GeoAreaCode": 499,
    "GeoAreaName": "Montenegro",
    "Food Waste Sector": "RTL",
    "Units": "KG",
    "FoodTotal": 126.07449,
    "lat": 42.708678,
    "long": 19.37439
  },
  {
    "2016": "",
    "2017": "",
    "2018": "",
    "2019": 15.64024,
    "Goal": 12,
    "Target": 12.3,
    "Indicator": "12.3.1",
    "SeriesCode": "AG_FOOD_WST_PC",
    "SeriesDescription": "Food waste per capita (KG)",
    "GeoAreaCode": 504,
    "GeoAreaName": "Morocco",
    "Food Waste Sector": "RTL",
    "Units": "KG",
    "FoodTotal": 134.3046,
    "lat": 31.791702,
    "long": -7.09262
  },
  {
    "2016": "",
    "2017": "",
    "2018": "",
    "2019": 15.64021,
    "Goal": 12,
    "Target": 12.3,
    "Indicator": "12.3.1",
    "SeriesCode": "AG_FOOD_WST_PC",
    "SeriesDescription": "Food waste per capita (KG)",
    "GeoAreaCode": 508,
    "GeoAreaName": "Mozambique",
    "Food Waste Sector": "RTL",
    "Units": "KG",
    "FoodTotal": 145.98244,
    "lat": -18.665695,
    "long": 35.529562
  },
  {
    "2016": "",
    "2017": "",
    "2018": "",
    "2019": 12.81133,
    "Goal": 12,
    "Target": 12.3,
    "Indicator": "12.3.1",
    "SeriesCode": "AG_FOOD_WST_PC",
    "SeriesDescription": "Food waste per capita (KG)",
    "GeoAreaCode": 512,
    "GeoAreaName": "Oman",
    "Food Waste Sector": "RTL",
    "Units": "KG",
    "FoodTotal": 132.91396,
    "lat": 21.512583,
    "long": 55.923255
  },
  {
    "2016": "",
    "2017": "",
    "2018": "",
    "2019": 15.64008,
    "Goal": 12,
    "Target": 12.3,
    "Indicator": "12.3.1",
    "SeriesCode": "AG_FOOD_WST_PC",
    "SeriesDescription": "Food waste per capita (KG)",
    "GeoAreaCode": 516,
    "GeoAreaName": "Namibia",
    "Food Waste Sector": "RTL",
    "Units": "KG",
    "FoodTotal": 135.22677,
    "lat": -22.95764,
    "long": 18.49041
  },
  {
    "2016": "",
    "2017": "",
    "2018": "",
    "2019": 12.85416,
    "Goal": 12,
    "Target": 12.3,
    "Indicator": "12.3.1",
    "SeriesCode": "AG_FOOD_WST_PC",
    "SeriesDescription": "Food waste per capita (KG)",
    "GeoAreaCode": 520,
    "GeoAreaName": "Nauru",
    "Food Waste Sector": "RTL",
    "Units": "KG",
    "FoodTotal": 117.46361,
    "lat": -0.522778,
    "long": 166.931503
  },
  {
    "2016": "",
    "2017": "",
    "2018": "",
    "2019": 15.64022,
    "Goal": 12,
    "Target": 12.3,
    "Indicator": "12.3.1",
    "SeriesCode": "AG_FOOD_WST_PC",
    "SeriesDescription": "Food waste per capita (KG)",
    "GeoAreaCode": 524,
    "GeoAreaName": "Nepal",
    "Food Waste Sector": "RTL",
    "Units": "KG",
    "FoodTotal": 121.91511,
    "lat": 28.394857,
    "long": 84.124008
  },
  {
    "2016": "",
    "2017": "",
    "2018": "",
    "2019": 10.99999,
    "Goal": 12,
    "Target": 12.3,
    "Indicator": "12.3.1",
    "SeriesCode": "AG_FOOD_WST_PC",
    "SeriesDescription": "Food waste per capita (KG)",
    "GeoAreaCode": 528,
    "GeoAreaName": "Netherlands",
    "Food Waste Sector": "RTL",
    "Units": "KG",
    "FoodTotal": 86.5703,
    "lat": 52.132633,
    "long": 5.291266
  },
  {
    "2016": "",
    "2017": "",
    "2018": "",
    "2019": 12.80951,
    "Goal": 12,
    "Target": 12.3,
    "Indicator": "12.3.1",
    "SeriesCode": "AG_FOOD_WST_PC",
    "SeriesDescription": "Food waste per capita (KG)",
    "GeoAreaCode": 531,
    "GeoAreaName": "CuraÃ§ao",
    "Food Waste Sector": "RTL",
    "Units": "KG",
    "FoodTotal": 112.2867,
    "lat": 12.1696,
    "long": 68.99
  },
  {
    "2016": "",
    "2017": "",
    "2018": "",
    "2019": 12.8101,
    "Goal": 12,
    "Target": 12.3,
    "Indicator": "12.3.1",
    "SeriesCode": "AG_FOOD_WST_PC",
    "SeriesDescription": "Food waste per capita (KG)",
    "GeoAreaCode": 533,
    "GeoAreaName": "Aruba",
    "Food Waste Sector": "RTL",
    "Units": "KG",
    "FoodTotal": 112.29193,
    "lat": 12.52111,
    "long": -69.968338
  },
  {
    "2016": "",
    "2017": "",
    "2018": "",
    "2019": 12.81463,
    "Goal": 12,
    "Target": 12.3,
    "Indicator": "12.3.1",
    "SeriesCode": "AG_FOOD_WST_PC",
    "SeriesDescription": "Food waste per capita (KG)",
    "GeoAreaCode": 534,
    "GeoAreaName": "Sint Maarten (Dutch part)",
    "Food Waste Sector": "RTL",
    "Units": "KG",
    "FoodTotal": 112.33163,
    "lat": 18.0425,
    "long": 63.0548
  },
  {
    "2016": "",
    "2017": "",
    "2018": "",
    "2019": 12.81326,
    "Goal": 12,
    "Target": 12.3,
    "Indicator": "12.3.1",
    "SeriesCode": "AG_FOOD_WST_PC",
    "SeriesDescription": "Food waste per capita (KG)",
    "GeoAreaCode": 540,
    "GeoAreaName": "New Caledonia",
    "Food Waste Sector": "RTL",
    "Units": "KG",
    "FoodTotal": 117.08987,
    "lat": -20.904305,
    "long": 165.618042
  },
  {
    "2016": "",
    "2017": "",
    "2018": "",
    "2019": 15.64117,
    "Goal": 12,
    "Target": 12.3,
    "Indicator": "12.3.1",
    "SeriesCode": "AG_FOOD_WST_PC",
    "SeriesDescription": "Food waste per capita (KG)",
    "GeoAreaCode": 548,
    "GeoAreaName": "Vanuatu",
    "Food Waste Sector": "RTL",
    "Units": "KG",
    "FoodTotal": 134.31254,
    "lat": -15.376706,
    "long": 166.959158
  },
  {
    "2016": "",
    "2017": "",
    "2018": "",
    "2019": 3.12002,
    "Goal": 12,
    "Target": 12.3,
    "Indicator": "12.3.1",
    "SeriesCode": "AG_FOOD_WST_PC",
    "SeriesDescription": "Food waste per capita (KG)",
    "GeoAreaCode": 554,
    "GeoAreaName": "New Zealand",
    "Food Waste Sector": "RTL",
    "Units": "KG",
    "FoodTotal": 89.69112,
    "lat": -40.900557,
    "long": 174.885971
  },
  {
    "2016": "",
    "2017": "",
    "2018": "",
    "2019": 15.64022,
    "Goal": 12,
    "Target": 12.3,
    "Indicator": "12.3.1",
    "SeriesCode": "AG_FOOD_WST_PC",
    "SeriesDescription": "Food waste per capita (KG)",
    "GeoAreaCode": 558,
    "GeoAreaName": "Nicaragua",
    "Food Waste Sector": "RTL",
    "Units": "KG",
    "FoodTotal": 123.37194,
    "lat": 12.865416,
    "long": -85.207229
  },
  {
    "2016": "",
    "2017": "",
    "2018": "",
    "2019": 15.64022,
    "Goal": 12,
    "Target": 12.3,
    "Indicator": "12.3.1",
    "SeriesCode": "AG_FOOD_WST_PC",
    "SeriesDescription": "Food waste per capita (KG)",
    "GeoAreaCode": 562,
    "GeoAreaName": "Niger",
    "Food Waste Sector": "RTL",
    "Units": "KG",
    "FoodTotal": 145.98252,
    "lat": 17.607789,
    "long": 8.081666
  },
  {
    "2016": 0.4799,
    "2017": 0.47768,
    "2018": 0.47399,
    "2019": 0.47002,
    "Goal": 12,
    "Target": 12.4,
    "Indicator": "12.4.2",
    "SeriesCode": "EN_EWT_GENPCAP",
    "SeriesDescription": "Electronic waste generated, per capita (Kg)",
    "GeoAreaCode": 562,
    "GeoAreaName": "Niger",
    "Food Waste Sector": "N/A",
    "Units": "KG",
    "FoodTotal": "",
    "lat": 17.607789,
    "long": 8.081666
  },
  {
    "2016": "",
    "2017": "",
    "2018": "",
    "2019": 15.64023,
    "Goal": 12,
    "Target": 12.3,
    "Indicator": "12.3.1",
    "SeriesCode": "AG_FOOD_WST_PC",
    "SeriesDescription": "Food waste per capita (KG)",
    "GeoAreaCode": 566,
    "GeoAreaName": "Nigeria",
    "Food Waste Sector": "RTL",
    "Units": "KG",
    "FoodTotal": 232.08602,
    "lat": 9.081999,
    "long": 8.675277
  },
  {
    "2016": "",
    "2017": "",
    "2018": "",
    "2019": 13.77387,
    "Goal": 12,
    "Target": 12.3,
    "Indicator": "12.3.1",
    "SeriesCode": "AG_FOOD_WST_PC",
    "SeriesDescription": "Food waste per capita (KG)",
    "GeoAreaCode": 578,
    "GeoAreaName": "Norway",
    "Food Waste Sector": "RTL",
    "Units": "KG",
    "FoodTotal": 97.53565,
    "lat": 60.472024,
    "long": 8.468946
  },
  {
    "2016": "",
    "2017": "",
    "2018": "",
    "2019": 12.8084,
    "Goal": 12,
    "Target": 12.3,
    "Indicator": "12.3.1",
    "SeriesCode": "AG_FOOD_WST_PC",
    "SeriesDescription": "Food waste per capita (KG)",
    "GeoAreaCode": 580,
    "GeoAreaName": "Northern Mariana Islands",
    "Food Waste Sector": "RTL",
    "Units": "KG",
    "FoodTotal": 117.04546,
    "lat": 17.33083,
    "long": 145.38469
  },
  {
    "2016": "",
    "2017": "",
    "2018": "",
    "2019": 15.63872,
    "Goal": 12,
    "Target": 12.3,
    "Indicator": "12.3.1",
    "SeriesCode": "AG_FOOD_WST_PC",
    "SeriesDescription": "Food waste per capita (KG)",
    "GeoAreaCode": 583,
    "GeoAreaName": "Micronesia",
    "Food Waste Sector": "RTL",
    "Units": "KG",
    "FoodTotal": 134.2915,
    "lat": 7.425554,
    "long": 150.550812
  },
  {
    "2016": "",
    "2017": "",
    "2018": "",
    "2019": 15.64262,
    "Goal": 12,
    "Target": 12.3,
    "Indicator": "12.3.1",
    "SeriesCode": "AG_FOOD_WST_PC",
    "SeriesDescription": "Food waste per capita (KG)",
    "GeoAreaCode": 584,
    "GeoAreaName": "Marshall Islands",
    "Food Waste Sector": "RTL",
    "Units": "KG",
    "FoodTotal": 119.01964,
    "lat": 7.131474,
    "long": 171.184478
  },
  {
    "2016": "",
    "2017": "",
    "2018": "",
    "2019": 12.8106,
    "Goal": 12,
    "Target": 12.3,
    "Indicator": "12.3.1",
    "SeriesCode": "AG_FOOD_WST_PC",
    "SeriesDescription": "Food waste per capita (KG)",
    "GeoAreaCode": 585,
    "GeoAreaName": "Palau",
    "Food Waste Sector": "RTL",
    "Units": "KG",
    "FoodTotal": 117.06556,
    "lat": 7.51498,
    "long": 134.58252
  },
  {
    "2016": "",
    "2017": "",
    "2018": "",
    "2019": 15.64023,
    "Goal": 12,
    "Target": 12.3,
    "Indicator": "12.3.1",
    "SeriesCode": "AG_FOOD_WST_PC",
    "SeriesDescription": "Food waste per capita (KG)",
    "GeoAreaCode": 586,
    "GeoAreaName": "Pakistan",
    "Food Waste Sector": "RTL",
    "Units": "KG",
    "FoodTotal": 116.92726,
    "lat": 30.375321,
    "long": 69.345116
  },
  {
    "2016": "",
    "2017": "",
    "2018": "",
    "2019": 12.81119,
    "Goal": 12,
    "Target": 12.3,
    "Indicator": "12.3.1",
    "SeriesCode": "AG_FOOD_WST_PC",
    "SeriesDescription": "Food waste per capita (KG)",
    "GeoAreaCode": 591,
    "GeoAreaName": "Panama",
    "Food Waste Sector": "RTL",
    "Units": "KG",
    "FoodTotal": 112.30144,
    "lat": 8.537981,
    "long": -80.782127
  },
  {
    "2016": "",
    "2017": "",
    "2018": "",
    "2019": 15.64019,
    "Goal": 12,
    "Target": 12.3,
    "Indicator": "12.3.1",
    "SeriesCode": "AG_FOOD_WST_PC",
    "SeriesDescription": "Food waste per capita (KG)",
    "GeoAreaCode": 598,
    "GeoAreaName": "Papua New Guinea",
    "Food Waste Sector": "RTL",
    "Units": "KG",
    "FoodTotal": 134.30418,
    "lat": -6.314993,
    "long": 143.95555
  },
  {
    "2016": "",
    "2017": "",
    "2018": "",
    "2019": 15.64014,
    "Goal": 12,
    "Target": 12.3,
    "Indicator": "12.3.1",
    "SeriesCode": "AG_FOOD_WST_PC",
    "SeriesDescription": "Food waste per capita (KG)",
    "GeoAreaCode": 600,
    "GeoAreaName": "Paraguay",
    "Food Waste Sector": "RTL",
    "Units": "KG",
    "FoodTotal": 115.71982,
    "lat": -23.442503,
    "long": -58.443832
  },
  {
    "2016": "",
    "2017": "",
    "2018": "",
    "2019": 15.64025,
    "Goal": 12,
    "Target": 12.3,
    "Indicator": "12.3.1",
    "SeriesCode": "AG_FOOD_WST_PC",
    "SeriesDescription": "Food waste per capita (KG)",
    "GeoAreaCode": 604,
    "GeoAreaName": "Peru",
    "Food Waste Sector": "RTL",
    "Units": "KG",
    "FoodTotal": 115.72061,
    "lat": -9.189967,
    "long": -75.015152
  },
  {
    "2016": "",
    "2017": "",
    "2018": "",
    "2019": 15.64023,
    "Goal": 12,
    "Target": 12.3,
    "Indicator": "12.3.1",
    "SeriesCode": "AG_FOOD_WST_PC",
    "SeriesDescription": "Food waste per capita (KG)",
    "GeoAreaCode": 608,
    "GeoAreaName": "Philippines",
    "Food Waste Sector": "RTL",
    "Units": "KG",
    "FoodTotal": 129.62541,
    "lat": 12.879721,
    "long": 121.774017
  },
  {
    "2016": "",
    "2017": "",
    "2018": "",
    "2019": 12.81132,
    "Goal": 12,
    "Target": 12.3,
    "Indicator": "12.3.1",
    "SeriesCode": "AG_FOOD_WST_PC",
    "SeriesDescription": "Food waste per capita (KG)",
    "GeoAreaCode": 616,
    "GeoAreaName": "Poland",
    "Food Waste Sector": "RTL",
    "Units": "KG",
    "FoodTotal": 94.3221,
    "lat": 51.919438,
    "long": 19.145136
  },
  {
    "2016": "",
    "2017": "",
    "2018": "",
    "2019": 12.81134,
    "Goal": 12,
    "Target": 12.3,
    "Indicator": "12.3.1",
    "SeriesCode": "AG_FOOD_WST_PC",
    "SeriesDescription": "Food waste per capita (KG)",
    "GeoAreaCode": 620,
    "GeoAreaName": "Portugal",
    "Food Waste Sector": "RTL",
    "Units": "KG",
    "FoodTotal": 122.65437,
    "lat": 39.399872,
    "long": -8.224454
  },
  {
    "2016": "",
    "2017": "",
    "2018": "",
    "2019": 15.64009,
    "Goal": 12,
    "Target": 12.3,
    "Indicator": "12.3.1",
    "SeriesCode": "AG_FOOD_WST_PC",
    "SeriesDescription": "Food waste per capita (KG)",
    "GeoAreaCode": 624,
    "GeoAreaName": "Guinea-Bissau",
    "Food Waste Sector": "RTL",
    "Units": "KG",
    "FoodTotal": 145.98134,
    "lat": 11.803749,
    "long": -15.180413
  },
  {
    "2016": "",
    "2017": "",
    "2018": "",
    "2019": 15.63999,
    "Goal": 12,
    "Target": 12.3,
    "Indicator": "12.3.1",
    "SeriesCode": "AG_FOOD_WST_PC",
    "SeriesDescription": "Food waste per capita (KG)",
    "GeoAreaCode": 626,
    "GeoAreaName": "Timor-Leste",
    "Food Waste Sector": "RTL",
    "Units": "KG",
    "FoodTotal": 129.62343,
    "lat": -8.874217,
    "long": 125.727539
  },
  {
    "2016": "",
    "2017": "",
    "2018": "",
    "2019": 12.81129,
    "Goal": 12,
    "Target": 12.3,
    "Indicator": "12.3.1",
    "SeriesCode": "AG_FOOD_WST_PC",
    "SeriesDescription": "Food waste per capita (KG)",
    "GeoAreaCode": 630,
    "GeoAreaName": "Puerto Rico",
    "Food Waste Sector": "RTL",
    "Units": "KG",
    "FoodTotal": 112.30234,
    "lat": 18.220833,
    "long": -66.590149
  },
  {
    "2016": "",
    "2017": "",
    "2018": "",
    "2019": 12.81144,
    "Goal": 12,
    "Target": 12.3,
    "Indicator": "12.3.1",
    "SeriesCode": "AG_FOOD_WST_PC",
    "SeriesDescription": "Food waste per capita (KG)",
    "GeoAreaCode": 634,
    "GeoAreaName": "Qatar",
    "Food Waste Sector": "RTL",
    "Units": "KG",
    "FoodTotal": 132.91511,
    "lat": 25.354826,
    "long": 51.183884
  },
  {
    "2016": 9.72587,
    "2017": 10.21651,
    "2018": 9.262,
    "2019": 10.97497,
    "Goal": 12,
    "Target": 12.4,
    "Indicator": "12.4.2",
    "SeriesCode": "EN_HAZ_PCAP",
    "SeriesDescription": "Hazardous waste generated, per capita (Kg)",
    "GeoAreaCode": 638,
    "GeoAreaName": "RÃ©union",
    "Food Waste Sector": "N/A",
    "Units": "KG",
    "FoodTotal": "",
    "lat": -21.115141,
    "long": 55.536384
  },
  {
    "2016": "",
    "2017": "",
    "2018": "",
    "2019": 12.81134,
    "Goal": 12,
    "Target": 12.3,
    "Indicator": "12.3.1",
    "SeriesCode": "AG_FOOD_WST_PC",
    "SeriesDescription": "Food waste per capita (KG)",
    "GeoAreaCode": 642,
    "GeoAreaName": "Romania",
    "Food Waste Sector": "RTL",
    "Units": "KG",
    "FoodTotal": 108.25063,
    "lat": 45.943161,
    "long": 24.96676
  },
  {
    "2016": "",
    "2017": "",
    "2018": "",
    "2019": 13.71791,
    "Goal": 12,
    "Target": 12.3,
    "Indicator": "12.3.1",
    "SeriesCode": "AG_FOOD_WST_PC",
    "SeriesDescription": "Food waste per capita (KG)",
    "GeoAreaCode": 643,
    "GeoAreaName": "Russia",
    "Food Waste Sector": "RTL",
    "Units": "KG",
    "FoodTotal": 74.74152,
    "lat": 61.52401,
    "long": 105.318756
  },
  {
    "2016": 676.3945,
    "2017": 740.25433,
    "2018": 875.73894,
    "2019": 689.63758,
    "Goal": 12,
    "Target": 12.4,
    "Indicator": "12.4.2",
    "SeriesCode": "EN_HAZ_PCAP",
    "SeriesDescription": "Hazardous waste generated, per capita (Kg)",
    "GeoAreaCode": 643,
    "GeoAreaName": "Russia",
    "Food Waste Sector": "N/A",
    "Units": "KG",
    "FoodTotal": "",
    "lat": 61.52401,
    "long": 105.318756
  },
  {
    "2016": "",
    "2017": "",
    "2018": "",
    "2019": 15.64031,
    "Goal": 12,
    "Target": 12.3,
    "Indicator": "12.3.1",
    "SeriesCode": "AG_FOOD_WST_PC",
    "SeriesDescription": "Food waste per capita (KG)",
    "GeoAreaCode": 646,
    "GeoAreaName": "Rwanda",
    "Food Waste Sector": "RTL",
    "Units": "KG",
    "FoodTotal": 207.65183,
    "lat": -1.940278,
    "long": 29.873888
  },
  {
    "2016": "",
    "2017": "",
    "2018": "",
    "2019": 12.80307,
    "Goal": 12,
    "Target": 12.3,
    "Indicator": "12.3.1",
    "SeriesCode": "AG_FOOD_WST_PC",
    "SeriesDescription": "Food waste per capita (KG)",
    "GeoAreaCode": 659,
    "GeoAreaName": "Saint Kitts and Nevis",
    "Food Waste Sector": "RTL",
    "Units": "KG",
    "FoodTotal": 112.23023,
    "lat": 17.357822,
    "long": -62.782998
  },
  {
    "2016": "",
    "2017": "",
    "2018": "",
    "2019": 15.64066,
    "Goal": 12,
    "Target": 12.3,
    "Indicator": "12.3.1",
    "SeriesCode": "AG_FOOD_WST_PC",
    "SeriesDescription": "Food waste per capita (KG)",
    "GeoAreaCode": 662,
    "GeoAreaName": "Saint Lucia",
    "Food Waste Sector": "RTL",
    "Units": "KG",
    "FoodTotal": 115.72363,
    "lat": 13.909444,
    "long": -60.978893
  },
  {
    "2016": "",
    "2017": "",
    "2018": "",
    "2019": 12.81064,
    "Goal": 12,
    "Target": 12.3,
    "Indicator": "12.3.1",
    "SeriesCode": "AG_FOOD_WST_PC",
    "SeriesDescription": "Food waste per capita (KG)",
    "GeoAreaCode": 663,
    "GeoAreaName": "Saint Martin (French Part)",
    "Food Waste Sector": "RTL",
    "Units": "KG",
    "FoodTotal": 112.29659,
    "lat": 18.0826,
    "long": 63.0523
  },
  {
    "2016": "",
    "2017": "",
    "2018": "",
    "2019": 15.64122,
    "Goal": 12,
    "Target": 12.3,
    "Indicator": "12.3.1",
    "SeriesCode": "AG_FOOD_WST_PC",
    "SeriesDescription": "Food waste per capita (KG)",
    "GeoAreaCode": 670,
    "GeoAreaName": "Saint Vincent and the Grenadines",
    "Food Waste Sector": "RTL",
    "Units": "KG",
    "FoodTotal": 115.72779,
    "lat": 12.984305,
    "long": -61.287228
  },
  {
    "2016": "",
    "2017": "",
    "2018": "",
    "2019": 12.82493,
    "Goal": 12,
    "Target": 12.3,
    "Indicator": "12.3.1",
    "SeriesCode": "AG_FOOD_WST_PC",
    "SeriesDescription": "Food waste per capita (KG)",
    "GeoAreaCode": 674,
    "GeoAreaName": "San Marino",
    "Food Waste Sector": "RTL",
    "Units": "KG",
    "FoodTotal": 122.7845,
    "lat": 43.94236,
    "long": 12.457777
  },
  {
    "2016": "",
    "2017": "",
    "2018": "",
    "2019": 15.64401,
    "Goal": 12,
    "Target": 12.3,
    "Indicator": "12.3.1",
    "SeriesCode": "AG_FOOD_WST_PC",
    "SeriesDescription": "Food waste per capita (KG)",
    "GeoAreaCode": 678,
    "GeoAreaName": "Sao Tome and Principe",
    "Food Waste Sector": "RTL",
    "Units": "KG",
    "FoodTotal": 142.91415,
    "lat": 0.1864,
    "long": 6.6131
  },
  {
    "2016": "",
    "2017": "",
    "2018": "",
    "2019": 19.65365,
    "Goal": 12,
    "Target": 12.3,
    "Indicator": "12.3.1",
    "SeriesCode": "AG_FOOD_WST_PC",
    "SeriesDescription": "Food waste per capita (KG)",
    "GeoAreaCode": 682,
    "GeoAreaName": "Saudi Arabia",
    "Food Waste Sector": "RTL",
    "Units": "KG",
    "FoodTotal": 150.10396,
    "lat": 23.885942,
    "long": 45.079162
  },
  {
    "2016": 17.24029,
    "2017": 27.18936,
    "2018": 23.98222,
    "2019": 25.94509,
    "Goal": 12,
    "Target": 12.4,
    "Indicator": "12.4.2",
    "SeriesCode": "EN_HAZ_PCAP",
    "SeriesDescription": "Hazardous waste generated, per capita (Kg)",
    "GeoAreaCode": 682,
    "GeoAreaName": "Saudi Arabia",
    "Food Waste Sector": "N/A",
    "Units": "KG",
    "FoodTotal": "",
    "lat": 23.885942,
    "long": 45.079162
  },
  {
    "2016": "",
    "2017": "",
    "2018": "",
    "2019": 15.64027,
    "Goal": 12,
    "Target": 12.3,
    "Indicator": "12.3.1",
    "SeriesCode": "AG_FOOD_WST_PC",
    "SeriesDescription": "Food waste per capita (KG)",
    "GeoAreaCode": 686,
    "GeoAreaName": "Senegal",
    "Food Waste Sector": "RTL",
    "Units": "KG",
    "FoodTotal": 142.87994,
    "lat": 14.497401,
    "long": -14.452362
  },
  {
    "2016": "",
    "2017": "",
    "2018": "",
    "2019": 15.64018,
    "Goal": 12,
    "Target": 12.3,
    "Indicator": "12.3.1",
    "SeriesCode": "AG_FOOD_WST_PC",
    "SeriesDescription": "Food waste per capita (KG)",
    "GeoAreaCode": 688,
    "GeoAreaName": "Serbia",
    "Food Waste Sector": "RTL",
    "Units": "KG",
    "FoodTotal": 104.42367,
    "lat": 44.016521,
    "long": 21.005859
  },
  {
    "2016": "",
    "2017": "",
    "2018": "",
    "2019": 12.80594,
    "Goal": 12,
    "Target": 12.3,
    "Indicator": "12.3.1",
    "SeriesCode": "AG_FOOD_WST_PC",
    "SeriesDescription": "Food waste per capita (KG)",
    "GeoAreaCode": 690,
    "GeoAreaName": "Seychelles",
    "Food Waste Sector": "RTL",
    "Units": "KG",
    "FoodTotal": 131.75481,
    "lat": -4.679574,
    "long": 55.491977
  },
  {
    "2016": "",
    "2017": "",
    "2018": "",
    "2019": 15.64021,
    "Goal": 12,
    "Target": 12.3,
    "Indicator": "12.3.1",
    "SeriesCode": "AG_FOOD_WST_PC",
    "SeriesDescription": "Food waste per capita (KG)",
    "GeoAreaCode": 694,
    "GeoAreaName": "Sierra Leone",
    "Food Waste Sector": "RTL",
    "Units": "KG",
    "FoodTotal": 145.9825,
    "lat": 8.460555,
    "long": -11.779889
  },
  {
    "2016": "",
    "2017": "",
    "2018": "",
    "2019": 12.81121,
    "Goal": 12,
    "Target": 12.3,
    "Indicator": "12.3.1",
    "SeriesCode": "AG_FOOD_WST_PC",
    "SeriesDescription": "Food waste per capita (KG)",
    "GeoAreaCode": 702,
    "GeoAreaName": "Singapore",
    "Food Waste Sector": "RTL",
    "Units": "KG",
    "FoodTotal": 118.55505,
    "lat": 1.352083,
    "long": 103.819836
  },
  {
    "2016": 84.72263,
    "2017": 82.594,
    "2018": 93.51172,
    "2019": 77.52815,
    "Goal": 12,
    "Target": 12.4,
    "Indicator": "12.4.2",
    "SeriesCode": "EN_HAZ_PCAP",
    "SeriesDescription": "Hazardous waste generated, per capita (Kg)",
    "GeoAreaCode": 702,
    "GeoAreaName": "Singapore",
    "Food Waste Sector": "N/A",
    "Units": "KG",
    "FoodTotal": "",
    "lat": 1.352083,
    "long": 103.819836
  },
  {
    "2016": "",
    "2017": "",
    "2018": "",
    "2019": 12.81128,
    "Goal": 12,
    "Target": 12.3,
    "Indicator": "12.3.1",
    "SeriesCode": "AG_FOOD_WST_PC",
    "SeriesDescription": "Food waste per capita (KG)",
    "GeoAreaCode": 703,
    "GeoAreaName": "Slovakia",
    "Food Waste Sector": "RTL",
    "Units": "KG",
    "FoodTotal": 108.25016,
    "lat": 48.669026,
    "long": 19.699024
  },
  {
    "2016": "",
    "2017": "",
    "2018": "",
    "2019": 15.64023,
    "Goal": 12,
    "Target": 12.3,
    "Indicator": "12.3.1",
    "SeriesCode": "AG_FOOD_WST_PC",
    "SeriesDescription": "Food waste per capita (KG)",
    "GeoAreaCode": 704,
    "GeoAreaName": "Vietnam",
    "Food Waste Sector": "RTL",
    "Units": "KG",
    "FoodTotal": 119.44999,
    "lat": 14.058324,
    "long": 108.277199
  },
  {
    "2016": "",
    "2017": "",
    "2018": "",
    "2019": 6.69192,
    "Goal": 12,
    "Target": 12.3,
    "Indicator": "12.3.1",
    "SeriesCode": "AG_FOOD_WST_PC",
    "SeriesDescription": "Food waste per capita (KG)",
    "GeoAreaCode": 705,
    "GeoAreaName": "Slovenia",
    "Food Waste Sector": "RTL",
    "Units": "KG",
    "FoodTotal": 60.98061,
    "lat": 46.151241,
    "long": 14.995463
  },
  {
    "2016": "",
    "2017": "",
    "2018": "",
    "2019": 15.64022,
    "Goal": 12,
    "Target": 12.3,
    "Indicator": "12.3.1",
    "SeriesCode": "AG_FOOD_WST_PC",
    "SeriesDescription": "Food waste per capita (KG)",
    "GeoAreaCode": 706,
    "GeoAreaName": "Somalia",
    "Food Waste Sector": "RTL",
    "Units": "KG",
    "FoodTotal": 145.98257,
    "lat": 5.152149,
    "long": 46.199616
  },
  {
    "2016": "",
    "2017": "",
    "2018": "",
    "2019": 15.64024,
    "Goal": 12,
    "Target": 12.3,
    "Indicator": "12.3.1",
    "SeriesCode": "AG_FOOD_WST_PC",
    "SeriesDescription": "Food waste per capita (KG)",
    "GeoAreaCode": 710,
    "GeoAreaName": "South Africa",
    "Food Waste Sector": "RTL",
    "Units": "KG",
    "FoodTotal": 83.06458,
    "lat": -30.559482,
    "long": 22.937506
  },
  {
    "2016": "",
    "2017": "",
    "2018": "",
    "2019": 15.64026,
    "Goal": 12,
    "Target": 12.3,
    "Indicator": "12.3.1",
    "SeriesCode": "AG_FOOD_WST_PC",
    "SeriesDescription": "Food waste per capita (KG)",
    "GeoAreaCode": 716,
    "GeoAreaName": "Zimbabwe",
    "Food Waste Sector": "RTL",
    "Units": "KG",
    "FoodTotal": 142.87987,
    "lat": -19.015438,
    "long": 29.154857
  },
  {
    "2016": "",
    "2017": "",
    "2018": "",
    "2019": 12.81131,
    "Goal": 12,
    "Target": 12.3,
    "Indicator": "12.3.1",
    "SeriesCode": "AG_FOOD_WST_PC",
    "SeriesDescription": "Food waste per capita (KG)",
    "GeoAreaCode": 724,
    "GeoAreaName": "Spain",
    "Food Waste Sector": "RTL",
    "Units": "KG",
    "FoodTotal": 115.70743,
    "lat": 40.463667,
    "long": -3.74922
  },
  {
    "2016": "",
    "2017": "",
    "2018": "",
    "2019": 15.64021,
    "Goal": 12,
    "Target": 12.3,
    "Indicator": "12.3.1",
    "SeriesCode": "AG_FOOD_WST_PC",
    "SeriesDescription": "Food waste per capita (KG)",
    "GeoAreaCode": 728,
    "GeoAreaName": "Sudan",
    "Food Waste Sector": "RTL",
    "Units": "KG",
    "FoodTotal": 145.98245,
    "lat": 12.862807,
    "long": 30.217636
  },
  {
    "2016": "",
    "2017": "",
    "2018": "",
    "2019": 97.22217,
    "Goal": 12,
    "Target": 12.3,
    "Indicator": "12.3.1",
    "SeriesCode": "AG_FOOD_WST_PC",
    "SeriesDescription": "Food waste per capita (KG)",
    "GeoAreaCode": 729,
    "GeoAreaName": "Sudan",
    "Food Waste Sector": "HHS",
    "Units": "KG",
    "FoodTotal": 140.51042,
    "lat": 12.862807,
    "long": 30.217636
  },
  {
    "2016": "",
    "2017": "",
    "2018": "",
    "2019": 27.64805,
    "Goal": 12,
    "Target": 12.3,
    "Indicator": "12.3.1",
    "SeriesCode": "AG_FOOD_WST_PC",
    "SeriesDescription": "Food waste per capita (KG)",
    "GeoAreaCode": 729,
    "GeoAreaName": "Sudan",
    "Food Waste Sector": "OOHC",
    "Units": "KG",
    "FoodTotal": 140.51043,
    "lat": 12.862807,
    "long": 30.217636
  },
  {
    "2016": "",
    "2017": "",
    "2018": "",
    "2019": 15.64022,
    "Goal": 12,
    "Target": 12.3,
    "Indicator": "12.3.1",
    "SeriesCode": "AG_FOOD_WST_PC",
    "SeriesDescription": "Food waste per capita (KG)",
    "GeoAreaCode": 729,
    "GeoAreaName": "Sudan",
    "Food Waste Sector": "RTL",
    "Units": "KG",
    "FoodTotal": 140.51044,
    "lat": 12.862807,
    "long": 30.217636
  },
  {
    "2016": "",
    "2017": "",
    "2018": "",
    "2019": 15.64122,
    "Goal": 12,
    "Target": 12.3,
    "Indicator": "12.3.1",
    "SeriesCode": "AG_FOOD_WST_PC",
    "SeriesDescription": "Food waste per capita (KG)",
    "GeoAreaCode": 740,
    "GeoAreaName": "Suriname",
    "Food Waste Sector": "RTL",
    "Units": "KG",
    "FoodTotal": 115.72782,
    "lat": 3.919305,
    "long": -56.027783
  },
  {
    "2016": 9.00009,
    "2017": 7.98947,
    "2018": 8.26408,
    "2019": 6.76686,
    "Goal": 12,
    "Target": 12.4,
    "Indicator": "12.4.2",
    "SeriesCode": "EN_EWT_GENPCAP",
    "SeriesDescription": "Electronic waste generated, per capita (Kg)",
    "GeoAreaCode": 740,
    "GeoAreaName": "Suriname",
    "Food Waste Sector": "N/A",
    "Units": "KG",
    "FoodTotal": "",
    "lat": 3.919305,
    "long": -56.027783
  },
  {
    "2016": 0.00784,
    "2017": 0.00459,
    "2018": 0.00237,
    "2019": 0.00151,
    "Goal": 12,
    "Target": 12.4,
    "Indicator": "12.4.2",
    "SeriesCode": "EN_HAZ_PCAP",
    "SeriesDescription": "Hazardous waste generated, per capita (Kg)",
    "GeoAreaCode": 740,
    "GeoAreaName": "Suriname",
    "Food Waste Sector": "N/A",
    "Units": "KG",
    "FoodTotal": "",
    "lat": 3.919305,
    "long": -56.027783
  },
  {
    "2016": "",
    "2017": "",
    "2018": "",
    "2019": 15.63978,
    "Goal": 12,
    "Target": 12.3,
    "Indicator": "12.3.1",
    "SeriesCode": "AG_FOOD_WST_PC",
    "SeriesDescription": "Food waste per capita (KG)",
    "GeoAreaCode": 748,
    "GeoAreaName": "Eswatini",
    "Food Waste Sector": "RTL",
    "Units": "KG",
    "FoodTotal": 142.87549,
    "lat": 26.5225,
    "long": 31.4659
  },
  {
    "2016": "",
    "2017": "",
    "2018": "",
    "2019": 10.00001,
    "Goal": 12,
    "Target": 12.3,
    "Indicator": "12.3.1",
    "SeriesCode": "AG_FOOD_WST_PC",
    "SeriesDescription": "Food waste per capita (KG)",
    "GeoAreaCode": 752,
    "GeoAreaName": "Sweden",
    "Food Waste Sector": "RTL",
    "Units": "KG",
    "FoodTotal": 111.5001,
    "lat": 60.128161,
    "long": 18.643501
  },
  {
    "2016": "",
    "2017": "",
    "2018": "",
    "2019": 12.81137,
    "Goal": 12,
    "Target": 12.3,
    "Indicator": "12.3.1",
    "SeriesCode": "AG_FOOD_WST_PC",
    "SeriesDescription": "Food waste per capita (KG)",
    "GeoAreaCode": 756,
    "GeoAreaName": "Switzerland",
    "Food Waste Sector": "RTL",
    "Units": "KG",
    "FoodTotal": 124.48702,
    "lat": 46.818188,
    "long": 8.227512
  },
  {
    "2016": "",
    "2017": "",
    "2018": "",
    "2019": 15.6402,
    "Goal": 12,
    "Target": 12.3,
    "Indicator": "12.3.1",
    "SeriesCode": "AG_FOOD_WST_PC",
    "SeriesDescription": "Food waste per capita (KG)",
    "GeoAreaCode": 760,
    "GeoAreaName": "Syria",
    "Food Waste Sector": "RTL",
    "Units": "KG",
    "FoodTotal": 147.08601,
    "lat": 34.802075,
    "long": 38.996815
  },
  {
    "2016": "",
    "2017": "",
    "2018": "",
    "2019": 15.64019,
    "Goal": 12,
    "Target": 12.3,
    "Indicator": "12.3.1",
    "SeriesCode": "AG_FOOD_WST_PC",
    "SeriesDescription": "Food waste per capita (KG)",
    "GeoAreaCode": 762,
    "GeoAreaName": "Tajikistan",
    "Food Waste Sector": "RTL",
    "Units": "KG",
    "FoodTotal": 140.51021,
    "lat": 38.861034,
    "long": 71.276093
  },
  {
    "2016": "",
    "2017": "",
    "2018": "",
    "2019": 15.64023,
    "Goal": 12,
    "Target": 12.3,
    "Indicator": "12.3.1",
    "SeriesCode": "AG_FOOD_WST_PC",
    "SeriesDescription": "Food waste per capita (KG)",
    "GeoAreaCode": 764,
    "GeoAreaName": "Thailand",
    "Food Waste Sector": "RTL",
    "Units": "KG",
    "FoodTotal": 121.97393,
    "lat": 15.870032,
    "long": 100.992541
  },
  {
    "2016": 5.69904,
    "2017": 5.79947,
    "2018": 5.97234,
    "2019": 6.05137,
    "Goal": 12,
    "Target": 12.4,
    "Indicator": "12.4.2",
    "SeriesCode": "EN_EWT_GENPCAP",
    "SeriesDescription": "Electronic waste generated, per capita (Kg)",
    "GeoAreaCode": 764,
    "GeoAreaName": "Thailand",
    "Food Waste Sector": "N/A",
    "Units": "KG",
    "FoodTotal": "",
    "lat": 15.870032,
    "long": 100.992541
  },
  {
    "2016": 50.19478,
    "2017": "",
    "2018": 32.70993,
    "2019": 25.13444,
    "Goal": 12,
    "Target": 12.4,
    "Indicator": "12.4.2",
    "SeriesCode": "EN_HAZ_PCAP",
    "SeriesDescription": "Hazardous waste generated, per capita (Kg)",
    "GeoAreaCode": 764,
    "GeoAreaName": "Thailand",
    "Food Waste Sector": "N/A",
    "Units": "KG",
    "FoodTotal": "",
    "lat": 15.870032,
    "long": 100.992541
  },
  {
    "2016": "",
    "2017": "",
    "2018": "",
    "2019": 15.64031,
    "Goal": 12,
    "Target": 12.3,
    "Indicator": "12.3.1",
    "SeriesCode": "AG_FOOD_WST_PC",
    "SeriesDescription": "Food waste per capita (KG)",
    "GeoAreaCode": 768,
    "GeoAreaName": "Togo",
    "Food Waste Sector": "RTL",
    "Units": "KG",
    "FoodTotal": 145.98337,
    "lat": 8.619543,
    "long": 0.824782
  },
  {
    "2016": "",
    "2017": "",
    "2018": "",
    "2019": 15.64068,
    "Goal": 12,
    "Target": 12.3,
    "Indicator": "12.3.1",
    "SeriesCode": "AG_FOOD_WST_PC",
    "SeriesDescription": "Food waste per capita (KG)",
    "GeoAreaCode": 776,
    "GeoAreaName": "Tonga",
    "Food Waste Sector": "RTL",
    "Units": "KG",
    "FoodTotal": 119.00484,
    "lat": -21.178986,
    "long": -175.198242
  },
  {
    "2016": "",
    "2017": "",
    "2018": "",
    "2019": 12.81159,
    "Goal": 12,
    "Target": 12.3,
    "Indicator": "12.3.1",
    "SeriesCode": "AG_FOOD_WST_PC",
    "SeriesDescription": "Food waste per capita (KG)",
    "GeoAreaCode": 780,
    "GeoAreaName": "Trinidad and Tobago",
    "Food Waste Sector": "RTL",
    "Units": "KG",
    "FoodTotal": 112.30499,
    "lat": 10.691803,
    "long": -61.222503
  },
  {
    "2016": "",
    "2017": "",
    "2018": "",
    "2019": 12.81128,
    "Goal": 12,
    "Target": 12.3,
    "Indicator": "12.3.1",
    "SeriesCode": "AG_FOOD_WST_PC",
    "SeriesDescription": "Food waste per capita (KG)",
    "GeoAreaCode": 784,
    "GeoAreaName": "United Arab Emirates",
    "Food Waste Sector": "RTL",
    "Units": "KG",
    "FoodTotal": 132.9134,
    "lat": 23.424076,
    "long": 53.847818
  },
  {
    "2016": 39.37241,
    "2017": 53.819,
    "2018": 63.43765,
    "2019": 71.37409,
    "Goal": 12,
    "Target": 12.4,
    "Indicator": "12.4.2",
    "SeriesCode": "EN_HAZ_PCAP",
    "SeriesDescription": "Hazardous waste generated, per capita (Kg)",
    "GeoAreaCode": 784,
    "GeoAreaName": "United Arab Emirates",
    "Food Waste Sector": "N/A",
    "Units": "KG",
    "FoodTotal": "",
    "lat": 23.424076,
    "long": 53.847818
  },
  {
    "2016": "",
    "2017": "",
    "2018": "",
    "2019": 15.6402,
    "Goal": 12,
    "Target": 12.3,
    "Indicator": "12.3.1",
    "SeriesCode": "AG_FOOD_WST_PC",
    "SeriesDescription": "Food waste per capita (KG)",
    "GeoAreaCode": 788,
    "GeoAreaName": "Tunisia",
    "Food Waste Sector": "RTL",
    "Units": "KG",
    "FoodTotal": 134.30424,
    "lat": 33.886917,
    "long": 9.537499
  },
  {
    "2016": "",
    "2017": "",
    "2018": "",
    "2019": 15.64023,
    "Goal": 12,
    "Target": 12.3,
    "Indicator": "12.3.1",
    "SeriesCode": "AG_FOOD_WST_PC",
    "SeriesDescription": "Food waste per capita (KG)",
    "GeoAreaCode": 792,
    "GeoAreaName": "Turkey",
    "Food Waste Sector": "RTL",
    "Units": "KG",
    "FoodTotal": 136.33171,
    "lat": 38.963745,
    "long": 35.243322
  },
  {
    "2016": "",
    "2017": "",
    "2018": "",
    "2019": 15.64024,
    "Goal": 12,
    "Target": 12.3,
    "Indicator": "12.3.1",
    "SeriesCode": "AG_FOOD_WST_PC",
    "SeriesDescription": "Food waste per capita (KG)",
    "GeoAreaCode": 795,
    "GeoAreaName": "Turkmenistan",
    "Food Waste Sector": "RTL",
    "Units": "KG",
    "FoodTotal": 119.00154,
    "lat": 38.969719,
    "long": 59.556278
  },
  {
    "2016": "",
    "2017": "",
    "2018": "",
    "2019": 12.81332,
    "Goal": 12,
    "Target": 12.3,
    "Indicator": "12.3.1",
    "SeriesCode": "AG_FOOD_WST_PC",
    "SeriesDescription": "Food waste per capita (KG)",
    "GeoAreaCode": 796,
    "GeoAreaName": "Turks and Caicos Islands",
    "Food Waste Sector": "RTL",
    "Units": "KG",
    "FoodTotal": 112.32013,
    "lat": 21.694025,
    "long": -71.797928
  },
  {
    "2016": "",
    "2017": "",
    "2018": "",
    "2019": 15.56642,
    "Goal": 12,
    "Target": 12.3,
    "Indicator": "12.3.1",
    "SeriesCode": "AG_FOOD_WST_PC",
    "SeriesDescription": "Food waste per capita (KG)",
    "GeoAreaCode": 798,
    "GeoAreaName": "Tuvalu",
    "Food Waste Sector": "RTL",
    "Units": "KG",
    "FoodTotal": 118.43985,
    "lat": -7.109535,
    "long": 177.64933
  },
  {
    "2016": "",
    "2017": "",
    "2018": "",
    "2019": 15.64023,
    "Goal": 12,
    "Target": 12.3,
    "Indicator": "12.3.1",
    "SeriesCode": "AG_FOOD_WST_PC",
    "SeriesDescription": "Food waste per capita (KG)",
    "GeoAreaCode": 800,
    "GeoAreaName": "Uganda",
    "Food Waste Sector": "RTL",
    "Units": "KG",
    "FoodTotal": 145.98267,
    "lat": 1.373333,
    "long": 32.290275
  },
  {
    "2016": "",
    "2017": "",
    "2018": "",
    "2019": 15.64021,
    "Goal": 12,
    "Target": 12.3,
    "Indicator": "12.3.1",
    "SeriesCode": "AG_FOOD_WST_PC",
    "SeriesDescription": "Food waste per capita (KG)",
    "GeoAreaCode": 804,
    "GeoAreaName": "Ukraine",
    "Food Waste Sector": "RTL",
    "Units": "KG",
    "FoodTotal": 119.31978,
    "lat": 48.379433,
    "long": 31.16558
  },
  {
    "2016": 0.08946,
    "2017": 0.09216,
    "2018": 0.08588,
    "2019": 0.10229,
    "Goal": 12,
    "Target": 12.4,
    "Indicator": "12.4.2",
    "SeriesCode": "EN_EWT_GENPCAP",
    "SeriesDescription": "Electronic waste generated, per capita (Kg)",
    "GeoAreaCode": 804,
    "GeoAreaName": "Ukraine",
    "Food Waste Sector": "N/A",
    "Units": "KG",
    "FoodTotal": "",
    "lat": 48.379433,
    "long": 31.16558
  },
  {
    "2016": 13.88758,
    "2017": 13.60565,
    "2018": 14.18012,
    "2019": 12.56948,
    "Goal": 12,
    "Target": 12.4,
    "Indicator": "12.4.2",
    "SeriesCode": "EN_HAZ_PCAP",
    "SeriesDescription": "Hazardous waste generated, per capita (Kg)",
    "GeoAreaCode": 804,
    "GeoAreaName": "Ukraine",
    "Food Waste Sector": "N/A",
    "Units": "KG",
    "FoodTotal": "",
    "lat": 48.379433,
    "long": 31.16558
  },
  {
    "2016": "",
    "2017": "",
    "2018": "",
    "2019": 15.64054,
    "Goal": 12,
    "Target": 12.3,
    "Indicator": "12.3.1",
    "SeriesCode": "AG_FOOD_WST_PC",
    "SeriesDescription": "Food waste per capita (KG)",
    "GeoAreaCode": 807,
    "GeoAreaName": "North Macedonia",
    "Food Waste Sector": "RTL",
    "Units": "KG",
    "FoodTotal": 126.07461,
    "lat": 41.6086,
    "long": 21.7453
  },
  {
    "2016": "",
    "2017": "",
    "2018": "",
    "2019": 15.64023,
    "Goal": 12,
    "Target": 12.3,
    "Indicator": "12.3.1",
    "SeriesCode": "AG_FOOD_WST_PC",
    "SeriesDescription": "Food waste per capita (KG)",
    "GeoAreaCode": 818,
    "GeoAreaName": "Egypt",
    "Food Waste Sector": "RTL",
    "Units": "KG",
    "FoodTotal": 134.30451,
    "lat": 26.820553,
    "long": 30.802498
  },
  {
    "2016": "",
    "2017": "",
    "2018": "",
    "2019": 4.2,
    "Goal": 12,
    "Target": 12.3,
    "Indicator": "12.3.1",
    "SeriesCode": "AG_FOOD_WST_PC",
    "SeriesDescription": "Food waste per capita (KG)",
    "GeoAreaCode": 826,
    "GeoAreaName": "United Kingdom of Great Britain and Northern Ireland",
    "Food Waste Sector": "RTL",
    "Units": "KG",
    "FoodTotal": 97.70005,
    "lat": 55.3781,
    "long": 3.436
  },
  {
    "2016": "",
    "2017": "",
    "2018": "",
    "2019": 12.81298,
    "Goal": 12,
    "Target": 12.3,
    "Indicator": "12.3.1",
    "SeriesCode": "AG_FOOD_WST_PC",
    "SeriesDescription": "Food waste per capita (KG)",
    "GeoAreaCode": 833,
    "GeoAreaName": "Isle of Man",
    "Food Waste Sector": "RTL",
    "Units": "KG",
    "FoodTotal": 114.58211,
    "lat": 54.236107,
    "long": -4.548056
  },
  {
    "2016": "",
    "2017": "",
    "2018": "",
    "2019": 15.64024,
    "Goal": 12,
    "Target": 12.3,
    "Indicator": "12.3.1",
    "SeriesCode": "AG_FOOD_WST_PC",
    "SeriesDescription": "Food waste per capita (KG)",
    "GeoAreaCode": 834,
    "GeoAreaName": "United Republic of Tanzania",
    "Food Waste Sector": "RTL",
    "Units": "KG",
    "FoodTotal": 162.37452,
    "lat": 6.369,
    "long": 34.8888
  },
  {
    "2016": "",
    "2017": "",
    "2018": "",
    "2019": 15.6544,
    "Goal": 12,
    "Target": 12.3,
    "Indicator": "12.3.1",
    "SeriesCode": "AG_FOOD_WST_PC",
    "SeriesDescription": "Food waste per capita (KG)",
    "GeoAreaCode": 840,
    "GeoAreaName": "United States",
    "Food Waste Sector": "RTL",
    "Units": "KG",
    "FoodTotal": 138.10677,
    "lat": 37.09024,
    "long": -95.712891
  },